Numéro du support;Longitude;Latitude;Position;Insee;Lieu dit;Adresse;Code postal;Commune;Nature du support;Hauteur en m;Propriétaire
38973;2.279166666666667;48.846944444444446;"48°50'49.000""N 2°16'45.000""E";75115;"";"39-43, QUAI ANDRÉ CITROËN TOUR MIRABEAU";75015;PARIS 15E ARRONDISSEMENT;Immeuble;60.4;Société Privée
39047;2.3825;48.852222222222224;"48°51'8.000""N 2°22'57.000""E";75111;"";"6, RUE DE CHANZY";75011;PARIS 11E ARRONDISSEMENT;Immeuble;38.0;Société HLM
39087;2.3202777777777777;48.840833333333336;"48°50'27.000""N 2°19'13.000""E";75114;"";"4, R PAUL RAOUL DAUTRY";75014;PARIS 14E ARRONDISSEMENT;Bâtiment;15.0;SNCF Réseau
39207;2.330277777777778;48.84722222222222;"48°50'50.000""N 2°19'49.000""E";75106;"";"35, R D'ASSAS";75006;PARIS 6E ARRONDISSEMENT;Immeuble;31.0;Société Privée
39475;2.269722222222222;48.849444444444444;"48°50'58.000""N 2°16'11.000""E";75116;"";13 AV BOUDON;75116;PARIS 16E ARRONDISSEMENT;Immeuble;37.4;"Copropriété, Syndic, SCI"
40021;2.6080555555555556;48.77722222222222;"48°46'38.000""N 2°36'29.000""E";77373;"";R DE MONTHERY CCAL CARREFOUR;77340;PONTAULT COMBAULT;Bâtiment;11.0;"Copropriété, Syndic, SCI"
40209;2.1463888888888887;48.791666666666664;"48°47'30.000""N 2°8'47.000""E";78646;PORCHEFONTAINE;"3 , R DU PONT COLBERT";78000;VERSAILLES;Immeuble;27.0;"Copropriété, Syndic, SCI"
40467;2.196388888888889;48.78111111111111;"48°46'52.000""N 2°11'47.000""E";78640;"";24 PL LOUVOIS;78140;VELIZY VILLACOUBLAY;Immeuble;34.0;Société Privée
42733;2.2180555555555554;48.755;"48°45'18.000""N 2°13'5.000""E";91064;"";"13, R DES ÉCOLES";91570;BIEVRES;Immeuble;18.5;Société HLM
42907;2.2375;48.89055555555556;"48°53'26.000""N 2°14'15.000""E";92062;LA DÉFENSE 7;C.CIAL LES 4 TEMPS (ESPACE EXPANSION) ESPLANADE DE LA PATINOIRE;92800;PUTEAUX;Immeuble;28.0;"Copropriété, Syndic, SCI"
42997;2.252222222222222;48.82055555555556;"48°49'14.000""N 2°15'8.000""E";92040;"";ALLÉE SAINTE LUCIE CCAL LES 3 MOULINS;92130;ISSY LES MOULINEAUX;Bâtiment;10.0;Société Privée
43561;2.5369444444444444;48.86416666666667;"48°51'51.000""N 2°32'13.000""E";93050;"";1 R DUGAY TROUIN LES FAUCHERETS;93330;NEUILLY SUR MARNE;Immeuble;25.5;Société HLM
43669;2.5719444444444446;48.96;"48°57'36.000""N 2°34'19.000""E";93073;"";69 R HENRI BARBUSSE RÉSIDENCE BARBUSSE;93290;TREMBLAY EN FRANCE;Immeuble;17.5;"Copropriété, Syndic, SCI"
43731;2.323888888888889;48.76583333333333;"48°45'57.000""N 2°19'26.000""E";94034;"";"1, ALLÉE DU CAPITAINE DUPONT";94260;FRESNES;Immeuble;46.0;"Copropriété, Syndic, SCI"
43755;2.4930555555555554;48.84166666666667;"48°50'30.000""N 2°29'35.000""E";94058;"";TUNNEL DE NOGENT A86;94170;PERREUX SUR MARNE;Tunnel;6.0;"Ets public , Minist, Synd mixt"
43785;2.5036111111111112;48.81527777777778;"48°48'55.000""N 2°30'13.000""E";94017;"";"2, R EUGÈNE BRUN";94500;CHAMPIGNY SUR MARNE;Immeuble;28.0;Société HLM
46722;1.7722222222222221;48.970555555555556;"48°58'14.000""N 1°46'20.000""E";78501;"";"63, 65 R DE LA GRANDE REMISE DES VOYERS";78440;PORCHEVILLE;Pylône autostable;62.0;EDF ou GDF
47454;2.2494444444444444;48.87583333333333;"48°52'33.000""N 2°14'58.000""E";92051;"";9B  BD RICHARD WALLACE 6 BD JULIEN POTIN;92200;NEUILLY SUR SEINE;Bâtiment;34.0;Société Privée
51188;2.3216666666666668;48.89;"48°53'24.000""N 2°19'18.000""E";75117;"";1 R LACROIX;75017;PARIS 17E ARRONDISSEMENT;Immeuble;28.0;"Copropriété, Syndic, SCI"
54947;2.2511111111111113;48.888333333333335;"48°53'18.000""N 2°15'4.000""E";92026;"PASSERELLE DE L'AIGLE";BD  DE NEUILLY;92400;COURBEVOIE;"Ouvrage d'art (pont, viaduc)";8.0;"Ets public , Minist, Synd mixt"
54949;2.250277777777778;48.8875;"48°53'15.000""N 2°15'1.000""E";92062;TUNNEL AU PIED DE ATHENA;LA DÉFENSE BD CIRCULAIRE PIERRE GAUDIN;92800;PUTEAUX;"Ouvrage d'art (pont, viaduc)";10.0;"Ets public , Minist, Synd mixt"
57935;2.3905555555555553;48.881388888888885;"48°52'53.000""N 2°23'26.000""E";75119;"";23 R MICHEL HIDALGO;75019;PARIS 19E ARRONDISSEMENT;Immeuble;18.4;Particulier
71669;3.411388888888889;48.90888888888889;"48°54'32.000""N 3°24'41.000""E";02798;LES DODIERS;"CHÂTEAU D'EAU LES DODIERS";02540;VIELS MAISONS;"Château d'eau - réservoir";31.0;"Commune, communauté de commune"
84680;2.415277777777778;48.84583333333333;"48°50'45.000""N 2°24'55.000""E";75112;"";7 R ELIE FAURE;75012;PARIS 12E ARRONDISSEMENT;Immeuble;41.0;"Commune, communauté de commune"
84762;2.35;48.89;"48°53'24.000""N 2°21'0.000""E";75118;"";80 BD BARBÈS;75018;PARIS 18E ARRONDISSEMENT;Immeuble;28.0;Société Privée
84822;2.3383333333333334;48.853611111111114;"48°51'13.000""N 2°20'18.000""E";75106;"";"4 R DE L'ANCIENNE COMEDIE";75006;PARIS 6E ARRONDISSEMENT;Immeuble;16.0;"Copropriété, Syndic, SCI"
85833;2.613611111111111;48.87777777777778;"48°52'40.000""N 2°36'49.000""E";77108;"";AV DU GENDARME CASTERMANT CCAL CHELLE2 MAGASIN CARREFOUR;77500;CHELLES;Bâtiment;25.0;Société Privée
85879;2.0933333333333333;48.91138888888889;"48°54'41.000""N 2°5'36.000""E";78551;"";A 14 ST GERMAIN;78100;SAINT GERMAIN EN LAYE;Tunnel;8.0;DDE
88965;2.0655555555555556;49.04555555555555;"49°2'44.000""N 2°3'56.000""E";95127;"";12 R LINANDES ORANGES;95800;CERGY;Immeuble;25.9;Société Privée
89005;2.5605555555555557;49.055277777777775;"49°3'19.000""N 2°33'38.000""E";95641;LES TREMBLEAUX ET ECOSSE FEVES;"";95470;VEMARS;Pylône autostable;32.5;SNCF Réseau
95522;2.317222222222222;48.83027777777778;"48°49'49.000""N 2°19'2.000""E";75114;"";15 R BARDINET;75014;PARIS 14E ARRONDISSEMENT;Immeuble;48.0;"Commune, communauté de commune"
103835;2.2688888888888887;48.841388888888886;"48°50'29.000""N 2°16'8.000""E";75116;"";143 AV DE VERSAILLES 2 BAT BLÉRIOT;75116;PARIS 16E ARRONDISSEMENT;Immeuble;36.0;"Ets public , Minist, Synd mixt"
103853;2.401111111111111;48.840555555555554;"48°50'26.000""N 2°24'4.000""E";75112;"";18 BD DE PICPUS;75012;PARIS 12E ARRONDISSEMENT;Immeuble;40.0;Société HLM
103929;2.3938888888888887;48.848333333333336;"48°50'54.000""N 2°23'38.000""E";75112;"";278 R DU FAUBOURG ST ANTOINE;75012;PARIS 12E ARRONDISSEMENT;Immeuble;35.0;Société HLM
104151;2.330277777777778;48.85916666666667;"48°51'33.000""N 2°19'49.000""E";75107;"";1 R DE BEAUNE;75007;PARIS 7E ARRONDISSEMENT;Immeuble;24.0;"Copropriété, Syndic, SCI"
104159;2.3725;48.855;"48°51'18.000""N 2°22'21.000""E";75111;"";25/29 R DE LA ROQUETTE;75011;PARIS 11E ARRONDISSEMENT;Immeuble;40.0;"Copropriété, Syndic, SCI"
104610;2.5905555555555555;48.83166666666666;"48°49'54.000""N 2°35'26.000""E";77169;"";32/36 R ALCIDE DE GASPESIE;77184;EMERAINVILLE;Immeuble;16.0;Société HLM
104808;2.6597222222222223;48.83222222222222;"48°49'56.000""N 2°39'35.000""E";77146;"";CHEM DE LA FONTAINE COMPLEXE SPORTIF;77183;CROISSY BEAUBOURG;Pylône tubulaire;15.0;TOTEM
107602;2.325277777777778;48.92166666666667;"48°55'18.000""N 2°19'31.000""E";92036;"";6-14 AV. LOUIS ROCHE;92230;GENNEVILLIERS;Bâtiment;37.0;Société Privée
107832;2.242777777777778;48.87888888888889;"48°52'44.000""N 2°14'34.000""E";92062;"";19 - 20 QUAI DE DION BOUTON;92800;PUTEAUX;Immeuble;17.0;"Copropriété, Syndic, SCI"
108148;2.3705555555555557;48.92055555555555;"48°55'14.000""N 2°22'14.000""E";93001;"";CHEM DU HAUT ST DENIS (LATÉRAL NORD);93300;AUBERVILLIERS;"Ouvrage d'art (pont, viaduc)";26.0;DDE
108350;2.533611111111111;48.82416666666667;"48°49'27.000""N 2°32'1.000""E";94079;"";28 RTE DE CHAMPIGNY;94350;VILLIERS SUR MARNE;Immeuble;33.3;"Copropriété, Syndic, SCI"
108368;2.3208333333333333;48.75944444444445;"48°45'34.000""N 2°19'15.000""E";94034;"";54 AV DE LA RÉPUBLIQUE RÉSIDENCE DU VAL DE BIÈVRE;94260;FRESNES;Immeuble;35.0;Société HLM
108376;2.402222222222222;48.829166666666666;"48°49'45.000""N 2°24'8.000""E";94018;"";172 AV. DE PARIS / 3 AV. DE GRAVELLE;94220;CHARENTON LE PONT;Immeuble;24.0;"Copropriété, Syndic, SCI"
108378;2.3791666666666664;48.783055555555556;"48°46'59.000""N 2°22'45.000""E";94081;"";31-37 AV DU COLONEL FABIEN;94400;VITRY SUR SEINE;Immeuble;52.0;Société Privée
108414;2.4411111111111112;48.778055555555554;"48°46'41.000""N 2°26'28.000""E";94028;AIRE CARREFOUR POMPADOUR;A86 SENS VERSAILLES-CRETEIL;94000;CRETEIL;"Ouvrage d'art (pont, viaduc)";8.0;DDE
108422;2.3802777777777777;48.80138888888889;"48°48'5.000""N 2°22'49.000""E";94081;"";2 R GAGNEE;94400;VITRY SUR SEINE;Immeuble;32.0;"Copropriété, Syndic, SCI"
108432;2.4258333333333333;48.805;"48°48'18.000""N 2°25'33.000""E";94046;"";64 AV DU GÉNÉRAL DE GAULLE;94700;MAISONS ALFORT;Immeuble;39.0;La Poste
108436;2.4955555555555557;48.80694444444445;"48°48'25.000""N 2°29'44.000""E";94068;"";STADE CHERON - R PIERRE BROSSOLETTE;94100;SAINT MAUR DES FOSSES;Pylône tubulaire;40.0;"Commune, communauté de commune"
108500;2.5380555555555553;49.0075;"49°0'27.000""N 2°32'17.000""E";95527;"";AÉROPORT CHARLES DE GAULLE CHAUFFERIE ZONE CENTRALE OUEST CENTRALE THERMIQUE;95700;ROISSY EN FRANCE;Pylône autostable;30.0;Société Privée
108718;2.237222222222222;48.97611111111111;"48°58'34.000""N 2°14'14.000""E";95582;"PONT DE L'ERMITAGE";BRETELLE A115 VERS A15;95110;SANNOIS;"Ouvrage d'art (pont, viaduc)";11.0;DDE
120388;2.046666666666667;48.795;"48°47'42.000""N 2°2'48.000""E";78423;"";"AV AMPERE L'ETANG DE BOIS D'ARCY";78180;MONTIGNY LE BRETONNEUX;Pylône tubulaire;30.0;"Commune, communauté de commune"
120538;2.5075;48.889722222222225;"48°53'23.000""N 2°30'27.000""E";93077;"";38 R BERNARD GANTE;93250;VILLEMOMBLE;Immeuble;20.0;Particulier
129243;2.4366666666666665;48.91;"48°54'36.000""N 2°26'12.000""E";93008;"";203 AV JEAN JAURES;93000;BOBIGNY;Immeuble;33.0;Société HLM
132720;2.4547222222222222;48.910833333333336;"48°54'39.000""N 2°27'17.000""E";93008;"";"68, CHEM DE LA MADELEINE";93000;BOBIGNY;Immeuble;25.0;"Copropriété, Syndic, SCI"
132854;2.438888888888889;48.90555555555556;"48°54'20.000""N 2°26'20.000""E";93008;"";119-127 AV JEAN JAURÈS;93000;BOBIGNY;Immeuble;32.0;Société HLM
135082;2.3602777777777777;48.888888888888886;"48°53'20.000""N 2°21'37.000""E";75118;"";62/64 R MARX DORMOY;75018;PARIS 18E ARRONDISSEMENT;Immeuble;33.0;"Copropriété, Syndic, SCI"
145973;2.4125;48.78194444444444;"48°46'55.000""N 2°24'45.000""E";94081;"";"27, R DES FUSILLÉS GARE SNCF";94400;VITRY SUR SEINE;"Château d'eau - réservoir";31.0;"Commune, communauté de commune"
146572;2.2225;48.83138888888889;"48°49'53.000""N 2°13'21.000""E";92064;"";R DE ST-CLOUD;92210;SAINT CLOUD;Pylône tubulaire;9.0;"Commune, communauté de commune"
147611;2.3244444444444445;48.7775;"48°46'39.000""N 2°19'28.000""E";92014;"";R CHARPENTIER - STADE MUNICIPAL;92340;BOURG LA REINE;Pylône tubulaire;29.0;"Commune, communauté de commune"
207681;2.3855555555555554;48.923611111111114;"48°55'25.000""N 2°23'8.000""E";93027;"";R SUZANNE MASSON PROCHE GARE RER;93120;COURNEUVE;Mât métallique;12.0;DDE
220055;2.963888888888889;48.68083333333333;"48°40'51.000""N 2°57'50.000""E";77393;"";R ST ROCH;77540;ROZAY EN BRIE;"Château d'eau - réservoir";43.0;"Syndicat des eaux, Adduction"
221422;3.1283333333333334;48.81388888888889;"48°48'50.000""N 3°7'42.000""E";77042;"";R DES PAPETERIES;77169;BOISSY LE CHATEL;Bâtiment;33.0;Société Privée
224187;2.3955555555555557;48.74888888888889;"48°44'56.000""N 2°23'44.000""E";94054;"";R JENNER TERRAIN SNCF;94310;ORLY;Pylône autostable;25.0;ORANGE
224605;2.4074999999999998;48.72416666666667;"48°43'27.000""N 2°24'27.000""E";91027;"";R HÉLÈNEBOUCHER RUE DES GUYARDS TERRAIN ADP;91200;ATHIS MONS;Pylône autostable;10.0;Aviation Civile
225641;2.4633333333333334;48.85861111111111;"48°51'31.000""N 2°27'48.000""E";93048;"";R DES GRANDS PECHERS 18/20 R ROBERT LEGROS;93100;MONTREUIL;Immeuble;25.0;Société HLM
239313;2.475277777777778;48.926944444444445;"48°55'37.000""N 2°28'31.000""E";93007;"";45 AV PAUL  VAILLANT COUTURIER;93150;BLANC MESNIL;Immeuble;44.0;Société HLM
243203;2.5230555555555556;48.904444444444444;"48°54'16.000""N 2°31'23.000""E";93014;"";4 CHEM DES POSTES;93390;CLICHY SOUS BOIS;Immeuble;18.0;"Copropriété, Syndic, SCI"
244128;2.381388888888889;48.67388888888889;"48°40'26.000""N 2°22'53.000""E";91687;"";32 R FRANCOEUR;91170;VIRY CHATILLON;Immeuble;26.0;"Copropriété, Syndic, SCI"
244132;2.551388888888889;48.87861111111111;"48°52'43.000""N 2°33'5.000""E";93032;"";8 R PIERRE BEZET;93220;GAGNY;Immeuble;25.0;"Copropriété, Syndic, SCI"
244134;2.413333333333333;48.87388888888889;"48°52'26.000""N 2°24'48.000""E";93045;"";27 R DE VILLEGRANGES;93260;LILAS;Immeuble;26.0;ORANGE
244344;2.4480555555555554;48.74333333333333;"48°44'36.000""N 2°26'53.000""E";94078;"";1-2 R ARMAND JEUSSELIN;94190;VILLENEUVE SAINT GEORGES;Immeuble;25.0;SFR
246820;2.2022222222222223;49.016666666666666;"49°1'0.000""N 2°12'8.000""E";95051;"";11 AV MOLIÈRE;95250;BEAUCHAMP;Immeuble;12.0;Particulier
249711;2.031388888888889;48.94277777777778;"48°56'34.000""N 2°1'53.000""E";78123;"";226 R ERNEST JOLLY;78955;CARRIERES SOUS POISSY;Immeuble;33.7;Société HLM
251085;2.29;48.97388888888889;"48°58'26.000""N 2°17'24.000""E";95555;"";31 R DANIELLE CASANOVA;95210;SAINT GRATIEN;Immeuble;13.0;Particulier
262713;2.5416666666666665;48.92861111111111;"48°55'43.000""N 2°32'30.000""E";93046;"";"41/45, AV JEAN-JACQUES ROUSSEAU";93190;LIVRY GARGAN;Immeuble;14.7;"Copropriété, Syndic, SCI"
264471;2.2844444444444445;48.979166666666664;"48°58'45.000""N 2°17'4.000""E";95203;"";18 R ERNEST RENAN;95600;EAUBONNE;Immeuble;10.4;Particulier
265151;2.401944444444444;48.7775;"48°46'39.000""N 2°24'7.000""E";94081;"";"15, R BALZAC";94400;VITRY SUR SEINE;Bâtiment;35.0;Société Privée
266895;2.216111111111111;48.99722222222222;"48°59'50.000""N 2°12'58.000""E";95252;"";28 R DE LA CROIX VERTE;95130;FRANCONVILLE;Immeuble;31.0;Société HLM
267716;2.3602777777777777;48.95166666666667;"48°57'6.000""N 2°21'37.000""E";93059;"";25 R NUNGESSER ET COLI;93380;PIERREFITTE SUR SEINE;Immeuble;19.7;"Copropriété, Syndic, SCI"
268074;1.7016666666666667;48.98861111111111;"48°59'19.000""N 1°42'6.000""E";78362;"";31 R JEAN JOUEN;78711;MANTES LA VILLE;Immeuble;32.0;Société HLM
268078;1.896388888888889;48.72611111111111;"48°43'34.000""N 1°53'47.000""E";78220;MAUREGARD;15 R GEORGES POMPIDOU;78690;ESSARTS LE ROI;Pylône autostable;11.0;TOTEM
268672;2.660833333333333;48.78;"48°46'48.000""N 2°39'39.000""E";77390;LA CUL DE SAC;"RTE D'OZOIR D.361";77680;ROISSY EN BRIE;Pylône autostable;33.5;TOTEM
270870;2.366388888888889;48.965555555555554;"48°57'56.000""N 2°21'59.000""E";93059;"";21 R ETIENNE DOLET;93380;PIERREFITTE SUR SEINE;Immeuble;19.5;Société HLM
275188;2.4458333333333333;48.8875;"48°53'15.000""N 2°26'45.000""E";93053;"";15 R EMILE ZOLA;93130;NOISY LE SEC;Immeuble;12.4;Particulier
275190;2.5411111111111113;48.8875;"48°53'15.000""N 2°32'28.000""E";93032;"";1 AV BLANCHE;93220;GAGNY;Immeuble;10.9;Particulier
275281;2.355;48.964166666666664;"48°57'51.000""N 2°21'18.000""E";93059;"";20 R FRANCOIS GILLET;93380;PIERREFITTE SUR SEINE;Immeuble;11.8;Particulier
275285;2.5605555555555557;48.868611111111115;"48°52'7.000""N 2°33'38.000""E";93032;"";24 AV CENTRALE;93220;GAGNY;Immeuble;11.4;Particulier
278086;2.5405555555555557;48.922222222222224;"48°55'20.000""N 2°32'26.000""E";93046;"";9 R PACHOT LAINÉ;93190;LIVRY GARGAN;Bâtiment;22.6;"Copropriété, Syndic, SCI"
279044;2.8872222222222224;48.96333333333333;"48°57'48.000""N 2°53'14.000""E";77284;"";47 R DES CORDELIERS;77100;MEAUX;Immeuble;18.0;"Copropriété, Syndic, SCI"
281086;2.5019444444444443;48.9525;"48°57'9.000""N 2°30'7.000""E";93005;"";"115, R DU MOULIN DE LA VILLE";93600;AULNAY SOUS BOIS;Immeuble;28.0;Société HLM
281186;2.1972222222222224;48.92138888888889;"48°55'17.000""N 2°11'50.000""E";78311;"";41 R ERNEST RENAN MAGASIN DE MEUBLES;78800;HOUILLES;Bâtiment;14.5;Société Privée
283008;2.4819444444444443;48.9425;"48°56'33.000""N 2°28'55.000""E";93005;"";68 R DE POLOGNE;93600;AULNAY SOUS BOIS;Bâtiment;11.5;Particulier
283093;2.401666666666667;48.768055555555556;"48°46'5.000""N 2°24'6.000""E";94073;"";6 AV HOCHE;94320;THIAIS;Bâtiment;14.9;"Copropriété, Syndic, SCI"
283095;2.5902777777777777;48.943333333333335;"48°56'36.000""N 2°35'25.000""E";93073;"";"132, AV ALBERT SARRAULT";93290;TREMBLAY EN FRANCE;Bâtiment;19.2;Particulier
283339;2.3641666666666667;48.81472222222222;"48°48'53.000""N 2°21'51.000""E";94043;"";"36, R ROGER SALENGRO";94270;KREMLIN BICETRE;Bâtiment;24.5;Particulier
283341;2.558611111111111;48.81305555555556;"48°48'47.000""N 2°33'31.000""E";94017;"";10 AV PAUL BÉLANJON;94500;CHAMPIGNY SUR MARNE;Bâtiment;12.8;Particulier
284828;2.4402777777777778;48.85861111111111;"48°51'31.000""N 2°26'25.000""E";93048;"";12 R MOLIÈRE;93100;MONTREUIL;Immeuble;22.3;"Copropriété, Syndic, SCI"
285351;2.5516666666666667;48.77333333333333;"48°46'24.000""N 2°33'6.000""E";94053;"";17 R SADI CARNOT;94880;NOISEAU;Bâtiment;16.5;Particulier
286578;2.6077777777777778;48.93805555555556;"48°56'17.000""N 2°36'28.000""E";77514;"";6 CHEM DE LA COURONNE;77270;VILLEPARISIS;Immeuble;26.1;Société HLM
286582;2.5813888888888887;48.94222222222222;"48°56'32.000""N 2°34'53.000""E";93073;"";R DE REIMS;93290;TREMBLAY EN FRANCE;Pylône tubulaire;25.0;"Commune, communauté de commune"
287578;2.3691666666666666;48.855;"48°51'18.000""N 2°22'9.000""E";75111;"";"14,  BD BEAUMARCHAIS";75011;PARIS 11E ARRONDISSEMENT;Immeuble;25.3;"Copropriété, Syndic, SCI"
288267;2.505;48.85194444444444;"48°51'7.000""N 2°30'18.000""E";94058;"";10 R PASTEUR;94170;PERREUX SUR MARNE;Bâtiment;11.9;Particulier
288269;2.3344444444444443;48.76694444444445;"48°46'1.000""N 2°20'4.000""E";94021;"";2 R LOUIS BLERIOT;94550;CHEVILLY LARUE;Bâtiment;11.4;Particulier
289346;2.2294444444444443;48.985277777777775;"48°59'7.000""N 2°13'46.000""E";95252;"";5/7 ALLÉE HECTOR BERLIOZ;95130;FRANCONVILLE;Immeuble;28.0;Société HLM
289893;2.5030555555555556;48.90472222222222;"48°54'17.000""N 2°30'11.000""E";93057;"";100/102 AV  JEAN JAURÈS;93320;PAVILLONS SOUS BOIS;Immeuble;30.0;"Copropriété, Syndic, SCI"
293472;2.376666666666667;48.78638888888889;"48°47'11.000""N 2°22'36.000""E";94081;"";109 AV DU COLONEL FABIEN;94400;VITRY SUR SEINE;Bâtiment;17.0;"Copropriété, Syndic, SCI"
295502;2.4130555555555557;48.935;"48°56'6.000""N 2°24'47.000""E";93027;"";7/9 R MARYSE BASTIÉ;93120;COURNEUVE;Bâtiment;23.3;"Copropriété, Syndic, SCI"
295710;2.3777777777777778;48.84527777777778;"48°50'43.000""N 2°22'40.000""E";75112;"";"50, AV DAUMESNIL";75012;PARIS 12E ARRONDISSEMENT;Immeuble;40.0;Intérieur
297421;2.060277777777778;49.00694444444444;"49°0'25.000""N 2°3'37.000""E";95323;"";"31 R DE L'OISE";95280;JOUY LE MOUTIER;Bâtiment;11.5;Particulier
297585;2.5091666666666668;48.74666666666667;"48°44'48.000""N 2°30'33.000""E";94004;"";9 R STANISLAS REVILLON;94470;BOISSY SAINT LEGER;Mât;12.0;Particulier
298917;2.568888888888889;48.845;"48°50'42.000""N 2°34'8.000""E";93051;"";10 R DU SOUVENIR;93160;NOISY LE GRAND;Bâtiment;11.6;Société Privée
299175;1.8827777777777777;48.720555555555556;"48°43'14.000""N 1°52'58.000""E";78220;"";R DE LA TASSE RN10;78690;ESSARTS LE ROI;Pylône tubulaire;30.0;TOTEM
299733;2.2958333333333334;48.70777777777778;"48°42'28.000""N 2°17'45.000""E";91161;"";28 RTE DE LONGJUMEAU;91380;CHILLY MAZARIN;Bâtiment;20.0;BOUYGUES
300944;2.4477777777777776;48.939166666666665;"48°56'21.000""N 2°26'52.000""E";93029;"";"76, R DU 11 NOVEMBRE";93700;DRANCY;Immeuble;12.2;Particulier
304314;2.015;49.00555555555555;"49°0'20.000""N 2°0'54.000""E";95323;"";"R D'ECANCOURT CHÂTEAU D'ELANCOURT";95280;JOUY LE MOUTIER;Monument historique;14.1;Particulier
304316;2.3430555555555554;48.86055555555556;"48°51'38.000""N 2°20'35.000""E";75101;"";142 R DE RIVOLI;75001;PARIS 1ER ARRONDISSEMENT;Immeuble;24.5;"Copropriété, Syndic, SCI"
304326;2.6908333333333334;48.86972222222222;"48°52'11.000""N 2°41'27.000""E";77438;"";"8, SQ ROBERT KENNEDY";77400;SAINT THIBAULT DES VIGNES;Immeuble;14.9;Société HLM
304429;2.3930555555555557;48.8175;"48°49'3.000""N 2°23'35.000""E";94041;"";39 R WESTERMEYER;94200;IVRY SUR SEINE;Immeuble;16.9;"Copropriété, Syndic, SCI"
305327;2.266111111111111;48.98083333333334;"48°58'51.000""N 2°15'58.000""E";95219;"";15 R LOUIS ARMANT IMM SNCF;95120;ERMONT;Immeuble;21.0;SNCF Réseau
305335;2.496111111111111;48.89222222222222;"48°53'32.000""N 2°29'46.000""E";93010;"";2 ALLÉE BECQUEREL;93140;BONDY;Bâtiment;16.6;"Copropriété, Syndic, SCI"
305346;2.167777777777778;48.94027777777778;"48°56'25.000""N 2°10'4.000""E";78586;"";"2-4, R JEAN MERMOZ";78500;SARTROUVILLE;Immeuble;16.0;"Copropriété, Syndic, SCI"
305789;2.1286111111111112;48.80166666666667;"48°48'6.000""N 2°7'43.000""E";78646;"";"2, AV DE PARIS";78000;VERSAILLES;Immeuble;16.0;Société Privée
305939;2.4877777777777776;48.93805555555556;"48°56'17.000""N 2°29'16.000""E";93005;"";38  R PASCAL LECOINTRE;93600;AULNAY SOUS BOIS;Immeuble;12.4;Particulier
306104;2.4269444444444446;48.7675;"48°46'3.000""N 2°25'37.000""E";94022;"";AV JEAN BOUIN STADE JEAN BOUIN;94600;CHOISY LE ROI;Pylône tubulaire;25.0;HIVORY
307335;2.4122222222222223;48.69222222222222;"48°41'32.000""N 2°24'44.000""E";91201;"";141 BD  HENRI BARBUSSE LA PLAINE DES SABLES;91210;DRAVEIL;Immeuble;9.5;"Copropriété, Syndic, SCI"
307378;2.315;48.69972222222222;"48°41'59.000""N 2°18'54.000""E";91161;"";"8, AV DU PRÉSIDENT MITTERRAND CTRE MOVING";91380;CHILLY MAZARIN;Immeuble;16.0;"Copropriété, Syndic, SCI"
307380;2.464722222222222;48.713055555555556;"48°42'47.000""N 2°27'53.000""E";91191;"";12 B  AV JEAN JAURÈS;91560;CROSNE;Immeuble;18.0;"Copropriété, Syndic, SCI"
307633;2.631388888888889;48.83861111111111;"48°50'19.000""N 2°37'53.000""E";77258;"";17 R NICOLAS APPERT;77185;LOGNES;Bâtiment;20.0;"Copropriété, Syndic, SCI"
307637;2.5344444444444445;48.949444444444445;"48°56'58.000""N 2°32'4.000""E";93071;"";"3, ALLÉE DE LA BOETIE";93270;SEVRAN;Immeuble;48.4;"Copropriété, Syndic, SCI"
307758;2.5180555555555557;48.931666666666665;"48°55'54.000""N 2°31'5.000""E";93071;"";32 ALLÉE DU MARÉCHAL MORTIER;93270;SEVRAN;Bâtiment;11.4;Particulier
312042;2.238611111111111;48.89888888888889;"48°53'56.000""N 2°14'19.000""E";92026;"";"56 AV DE L'ARCHE";92400;COURBEVOIE;Immeuble;40.0;"Copropriété, Syndic, SCI"
312429;1.975277777777778;48.7625;"48°45'45.000""N 1°58'31.000""E";78208;"";65B AV GEORGE POLITZER HÔTEL PREMIÈRE CLASSE;78990;ELANCOURT;Pylône tubulaire;20.0;TOTEM
314777;3.3897222222222223;49.035555555555554;"49°2'8.000""N 3°23'23.000""E";02168;LA PRAIRIE;R DE LA PLAINE Z. I.;02400;CHATEAU THIERRY;Silo;23.0;Société Privée
316434;2.874722222222222;48.935833333333335;"48°56'9.000""N 2°52'29.000""E";77276;"";CHEM DES MADELEINES;77100;MAREUIL LES MEAUX;Pylône tubulaire;15.0;TOTEM
316736;2.465;49.02638888888889;"49°1'35.000""N 2°27'54.000""E";95280;"";AV DU 6 JUIN 1944 BÂTIMENT A;95190;GOUSSAINVILLE;Immeuble;19.1;Société HLM
316742;2.019722222222222;48.92;"48°55'12.000""N 2°1'11.000""E";78498;"";33  R DU CHAMP GAILLARD;78300;POISSY;Bâtiment;30.0;Société HLM
317883;2.0819444444444444;49.03888888888889;"49°2'20.000""N 2°4'55.000""E";95127;LES TROIS FONTAINES;"HALL D'ENT D'AUCHAN";95800;CERGY;Bâtiment;19.0;"Copropriété, Syndic, SCI"
318267;2.385;48.77305555555556;"48°46'23.000""N 2°23'6.000""E";94081;"";2 R JULIAN GRIMAU;94400;VITRY SUR SEINE;Bâtiment;15.0;Société Privée
319124;2.419722222222222;48.98722222222222;"48°59'14.000""N 2°25'11.000""E";95019;"";135 R JEAN JAURÈS;95400;ARNOUVILLE;Bâtiment;17.0;"Copropriété, Syndic, SCI"
319235;2.7680555555555557;48.73833333333333;"48°44'18.000""N 2°46'5.000""E";77470;"";1 R DU DR LAMBERT;77220;TOURNAN EN BRIE;Bâtiment;17.0;ORANGE
321688;2.3530555555555557;48.84972222222222;"48°50'59.000""N 2°21'11.000""E";75105;"";"24 B , BD ST GERMAIN";75005;PARIS 5E ARRONDISSEMENT;Immeuble;24.0;Association
325447;3.1302777777777777;49.065555555555555;"49°3'56.000""N 3°7'49.000""E";77129;"";LE CALVAIRE CH RURAL DE PARIS À REIMS;77840;COULOMBS EN VALOIS;Pylône autostable;37.0;TOTEM
325692;2.446111111111111;48.93;"48°55'48.000""N 2°26'46.000""E";93029;"";R ALSACE LORRAINE STADE M. BAQUET;93700;DRANCY;Pylône tubulaire;20.0;TOTEM
325857;2.363888888888889;48.86694444444444;"48°52'1.000""N 2°21'50.000""E";75103;METRO REPUBLIQUE L8;11 PL DE LA REPUBLIQUE;75003;PARIS 3E ARRONDISSEMENT;Intérieur galerie;0.0;RATP
326192;2.2508333333333335;48.88777777777778;"48°53'16.000""N 2°15'3.000""E";92026;"";21 V DES BATISSEURS ESPLANADE DE LA DÉFENSE TUNNEL DE LA DÉFENSE L1;92400;COURBEVOIE;Intérieur galerie;0.0;RATP
326865;2.4169444444444443;48.846111111111114;"48°50'46.000""N 2°25'1.000""E";94067;"";127 AV GALLIENI ST MANDE L1;94160;SAINT MANDE;Intérieur galerie;0.0;Société Privée
326873;2.72;48.83777777777778;"48°50'16.000""N 2°43'12.000""E";77058;"";R NICOLAS LEDOUX FULGENCE BIENVENUE RER A;77600;BUSSY SAINT GEORGES;Intérieur galerie;0.0;RATP
326875;2.4025;48.89083333333333;"48°53'27.000""N 2°24'9.000""E";93055;METRO L5 HOCHE;60 AV JEAN LOLIVE;93500;PANTIN;Intérieur galerie;0.0;RATP
326958;2.3066666666666666;48.90277777777778;"48°54'10.000""N 2°18'24.000""E";92024;"";82 R MARTRE MAIRIE DE CLICHY L13;92110;CLICHY;Intérieur galerie;1.0;RATP
328788;2.441388888888889;48.76833333333333;"48°46'6.000""N 2°26'29.000""E";94074;"";"5-7, R CHARLES BOURSEUL ZAC DU VAL POMPADOUR BATIMENT 3";94460;VALENTON;Bâtiment;9.0;SFR
329685;2.0105555555555554;48.68194444444445;"48°40'55.000""N 2°0'38.000""E";78162;LA FERTE;"";78460;CHOISEL;Pylône autostable;15.0;TOTEM
330082;1.8141666666666667;48.99444444444445;"48°59'40.000""N 1°48'51.000""E";78267;"";R DES GROUX;78440;GARGENVILLE;pylône arbre;15.0;TOTEM
333561;2.1422222222222222;48.805277777777775;"48°48'19.000""N 2°8'32.000""E";78646;"";6 R DE MONTREUIL;78000;VERSAILLES;Immeuble;18.5;Particulier
334602;2.6080555555555556;48.825833333333335;"48°49'33.000""N 2°36'29.000""E";77169;"";"BD  DU CLOS DE L'AUMONE STADE DOMINIQUE ROCHETEAU";77184;EMERAINVILLE;Pylône tubulaire;25.0;HIVORY
334698;2.411111111111111;48.76277777777778;"48°45'46.000""N 2°24'40.000""E";94022;"";"33,  AV ANATOLE FRANCE";94600;CHOISY LE ROI;Immeuble;22.2;"Copropriété, Syndic, SCI"
335092;2.4969444444444444;48.84722222222222;"48°50'50.000""N 2°29'49.000""E";94058;"";82 AV DU 11 NOVEMBRE;94170;PERREUX SUR MARNE;Immeuble;18.2;"Copropriété, Syndic, SCI"
345885;1.6308333333333334;49.00083333333333;"49°0'3.000""N 1°37'51.000""E";78531;"";2 R LEBAUDY;78710;ROSNY SUR SEINE;Bâtiment;12.0;Particulier
346393;2.473611111111111;48.768055555555556;"48°46'5.000""N 2°28'25.000""E";94028;"";3 R SINCLAIR;94000;CRETEIL;Bâtiment;18.1;"Copropriété, Syndic, SCI"
348249;1.9905555555555554;48.79944444444445;"48°47'58.000""N 1°59'26.000""E";78165;LE PUITS AU LOUP;ECHANGER RN12 SORTIE ELANCOURT;78340;CLAYES SOUS BOIS;Pylône tubulaire;32.0;HIVORY
348554;2.3083333333333336;48.954166666666666;"48°57'15.000""N 2°18'30.000""E";93031;"";1 À 3 AV DU 18 JUIN 1940 HOTEL IBIS;93800;EPINAY SUR SEINE;Immeuble;21.0;Société Privée
348584;2.3725;48.81722222222222;"48°49'2.000""N 2°22'21.000""E";94041;"";"17,  R BARBES";94200;IVRY SUR SEINE;Immeuble;24.5;"Copropriété, Syndic, SCI"
349577;2.1725;48.91277777777778;"48°54'46.000""N 2°10'21.000""E";78124;"";ENTRE LA ROUTE ST GERMAIN ET R DES VIGNES BLANCHES TUNNEL A14;78420;CARRIERES SUR SEINE;Tunnel;8.0;"Ets public , Minist, Synd mixt"
350355;2.419722222222222;48.761944444444445;"48°45'43.000""N 2°25'11.000""E";94022;"";97 AV DE VILLENEUVE ST GEORGES;94600;CHOISY LE ROI;Immeuble;22.9;"Copropriété, Syndic, SCI"
350369;2.1475;48.770833333333336;"48°46'15.000""N 2°8'51.000""E";78322;"";100 R CHARLES DE GAULLE;78350;JOUY EN JOSAS;Bâtiment;13.2;"Copropriété, Syndic, SCI"
350373;2.255;48.88027777777778;"48°52'49.000""N 2°15'18.000""E";92051;"";8 R DELABORDÈRE;92200;NEUILLY SUR SEINE;Bâtiment;17.5;"Copropriété, Syndic, SCI"
352005;2.136111111111111;48.854166666666664;"48°51'15.000""N 2°8'10.000""E";78126;"";106 AV JEAN MOULIN;78170;CELLE SAINT CLOUD;Bâtiment;21.0;Société Privée
353016;2.496111111111111;48.94305555555555;"48°56'35.000""N 2°29'46.000""E";93005;"";23 R JACQUES DUCLOS;93600;AULNAY SOUS BOIS;Bâtiment;36.0;"Copropriété, Syndic, SCI"
353177;2.2519444444444443;48.9975;"48°59'51.000""N 2°15'7.000""E";95219;"";2 PL COUBERT;95120;ERMONT;Immeuble;30.4;Société HLM
353296;2.269722222222222;48.86805555555556;"48°52'5.000""N 2°16'11.000""E";75116;"";ENTRE LA PORTE DAUPHINE ET LA PORTE DE LA MUETTE TUNNEL PÉRIPHÉRIQUE;75116;PARIS 16E ARRONDISSEMENT;Tunnel;8.0;"Ets public , Minist, Synd mixt"
353447;2.1952777777777777;48.876666666666665;"48°52'36.000""N 2°11'43.000""E";92063;"";34 R DIDEROT;92500;RUEIL MALMAISON;Bâtiment;9.4;"Copropriété, Syndic, SCI"
353594;2.495;48.865;"48°51'54.000""N 2°29'42.000""E";93064;"";"10 R DES ANCIENS COMBATTANTS D'AFRIQUE DU NORD";93110;ROSNY SOUS BOIS;Immeuble;18.0;Société HLM
355445;2.288611111111111;48.82944444444445;"48°49'46.000""N 2°17'19.000""E";75115;"";1 PL DE LA PORTE DE VERSAILLES PARC DES EXPOSITIONS;75015;PARIS 15E ARRONDISSEMENT;Bâtiment;29.6;"Commune, communauté de commune"
358173;1.8955555555555557;48.98888888888889;"48°59'20.000""N 1°53'44.000""E";78440;"";109 R JEAN MERMOZ FOYER SONACOTRA;78130;MUREAUX;Bâtiment;18.0;"Copropriété, Syndic, SCI"
366862;2.2430555555555554;48.81944444444444;"48°49'10.000""N 2°14'35.000""E";92040;"";4 R VAUGIRARD;92130;ISSY LES MOULINEAUX;Immeuble;21.0;Société HLM
368184;2.5233333333333334;48.882222222222225;"48°52'56.000""N 2°31'24.000""E";93077;"";33 R DE LA BOURDONNAIS;93250;VILLEMOMBLE;Immeuble;20.0;"Copropriété, Syndic, SCI"
370299;2.6;48.94888888888889;"48°56'56.000""N 2°36'0.000""E";77514;"";D.84 - 129 R EUGÈNE VARLIN;77270;VILLEPARISIS;Immeuble;20.0;"Copropriété, Syndic, SCI"
370846;2.2511111111111113;48.812777777777775;"48°48'46.000""N 2°15'4.000""E";92048;"";40 AV PAUL BERT;92360;MEUDON;Bâtiment;9.0;"Copropriété, Syndic, SCI"
375391;2.3291666666666666;48.964166666666664;"48°57'51.000""N 2°19'45.000""E";95197;"";19 R FAUVEAU BÂTIMENT 2D;95170;DEUIL LA BARRE;Immeuble;25.2;Société HLM
384466;2.538611111111111;48.86277777777778;"48°51'46.000""N 2°32'19.000""E";93050;"";288 AV DE VERDUN STADE GEORGES FOULON;93330;NEUILLY SUR MARNE;Pylône tubulaire;26.2;TOTEM
387898;2.4555555555555557;48.73138888888889;"48°43'53.000""N 2°27'20.000""E";94078;"";40 R VILLEBOIS MAREUIL;94190;VILLENEUVE SAINT GEORGES;Bâtiment;11.0;ORANGE
387997;2.6772222222222224;48.761944444444445;"48°45'43.000""N 2°40'38.000""E";77350;"";"43, AV DU GÉNÉRAL DE GAULLE STADE DES 3 SAPINS";77330;OZOIR LA FERRIERE;Pylône tubulaire;33.0;"Commune, communauté de commune"
389661;2.26;48.990833333333335;"48°59'27.000""N 2°15'36.000""E";95219;"";10/12 R DU MARÉCHAL FOCH;95120;ERMONT;Immeuble;32.5;SFR
394243;2.2730555555555556;48.904444444444444;"48°54'16.000""N 2°16'23.000""E";92026;"";161 R ARMAND SYLVESTRE;92400;COURBEVOIE;Immeuble;23.1;"Copropriété, Syndic, SCI"
394255;2.343888888888889;48.797777777777775;"48°47'52.000""N 2°20'38.000""E";94016;"";"A6, SENS PARIS / PROVINCE PR 2,2";94230;CACHAN;"Ouvrage de signalisation (portique routier, panneau routier)";13.0;DDE
394257;2.343888888888889;48.797777777777775;"48°47'52.000""N 2°20'38.000""E";94016;"";"A6, SENS PARIS / PROVINCE PR 2,2";94230;CACHAN;"Ouvrage d'art (pont, viaduc)";8.0;DDE
395607;2.428888888888889;48.685;"48°41'6.000""N 2°25'44.000""E";91201;"";"8, R WALDECK ROUSSEAU";91210;DRAVEIL;Immeuble;15.6;Particulier
396757;2.325277777777778;48.93;"48°55'48.000""N 2°19'31.000""E";92078;"";AV DU VIEUX CHEM DE ST DENIS PRÉS A86 ET D9;92390;VILLENEUVE LA GARENNE;Mât;13.0;ORANGE
397677;2.503888888888889;48.82861111111111;"48°49'43.000""N 2°30'14.000""E";94017;"";"32, AVE DE L'ILE DE L'AMOUR";94500;CHAMPIGNY SUR MARNE;Immeuble;11.8;Particulier
403119;2.2780555555555555;48.88444444444445;"48°53'4.000""N 2°16'41.000""E";92051;"";34 R PERRONET;92200;NEUILLY SUR SEINE;Immeuble;23.0;"Copropriété, Syndic, SCI"
403135;2.207777777777778;49.01166666666666;"49°0'42.000""N 2°12'28.000""E";95607;"";5 ALLÉE DES BOULEAUX;95150;TAVERNY;Immeuble;33.7;Société HLM
403351;2.3230555555555554;48.89277777777778;"48°53'34.000""N 2°19'23.000""E";75117;"";112 R DES MOINES;75017;PARIS 17E ARRONDISSEMENT;Bâtiment;25.3;"Copropriété, Syndic, SCI"
404021;2.3005555555555555;48.864444444444445;"48°51'52.000""N 2°18'2.000""E";75116;"";"2, AV DE NEW YORK";75016;PARIS 16E ARRONDISSEMENT;Bâtiment;16.0;"Copropriété, Syndic, SCI"
411554;2.2705555555555557;48.783055555555556;"48°46'59.000""N 2°16'14.000""E";92060;"";17 AV DE LA RÉPUBLIQUE;92350;PLESSIS ROBINSON;Immeuble;21.3;Société HLM
417089;2.0547222222222223;49.04638888888889;"49°2'47.000""N 2°3'17.000""E";95127;"";ALLÉE DU BOIS DE LA JUSTICE AV DES RAIES;95000;CERGY;Pylône tubulaire;28.0;TOTEM
417391;2.5597222222222222;48.82222222222222;"48°49'20.000""N 2°33'35.000""E";94059;"";24 AV DES MOUSQUETAIRES;94420;PLESSIS TREVISE;Immeuble;17.0;"Commune, communauté de commune"
422944;2.560277777777778;48.89388888888889;"48°53'38.000""N 2°33'37.000""E";93047;"";111 AV DANIEL PERDRIGE;93370;MONTFERMEIL;Pylône tubulaire;26.0;HIVORY
422980;2.290277777777778;48.87694444444445;"48°52'37.000""N 2°17'25.000""E";75117;"";11 R VILLARET DE JOYEUSE;75017;PARIS 17E ARRONDISSEMENT;Immeuble;26.4;Etablissement de soins
422982;2.310277777777778;48.85138888888889;"48°51'5.000""N 2°18'37.000""E";75107;"";22 AV DUQUESNE;75007;PARIS 7E ARRONDISSEMENT;Immeuble;26.9;Particulier
422984;2.363611111111111;48.86972222222222;"48°52'11.000""N 2°21'49.000""E";75110;"";14 R BEAUREPAIRE;75010;PARIS 10E ARRONDISSEMENT;Immeuble;26.5;"Copropriété, Syndic, SCI"
424145;2.4825;48.94638888888889;"48°56'47.000""N 2°28'57.000""E";93005;LES MARDELLES;44 R MAURICE DE BROGLIE GVIO- PARC DES MARDELLES;93600;AULNAY SOUS BOIS;Pylône tubulaire;23.0;TOTEM
424443;2.317222222222222;48.87888888888889;"48°52'44.000""N 2°19'2.000""E";75108;"";25 R DU GL FOY;75008;PARIS 8E ARRONDISSEMENT;Immeuble;31.7;"Copropriété, Syndic, SCI"
424599;2.0436111111111113;49.05888888888889;"49°3'32.000""N 2°2'37.000""E";95476;"";126 CHAUSSÉE JULES CÉSAR PYLÔNE RTE N°166;95520;OSNY;Pylône autostable;41.0;RTE
426139;2.2058333333333335;48.840833333333336;"48°50'27.000""N 2°12'21.000""E";92064;"";3 R PASTEUR ENTRÉE 10 RÉSIDENCE LES BOUCLES DE LA REINE;92210;SAINT CLOUD;Immeuble;16.0;"Copropriété, Syndic, SCI"
432092;2.203333333333333;48.729166666666664;"48°43'45.000""N 2°12'12.000""E";91635;"";CHEM DE LIMON ABBAYE;91430;VAUHALLAN;Monument religieux;33.0;"Commune, communauté de commune"
432678;2.4608333333333334;48.73694444444445;"48°44'13.000""N 2°27'39.000""E";94078;"";117 R DE GAMBETTE;94190;VILLENEUVE SAINT GEORGES;Bâtiment;12.0;Particulier
434808;1.7575;48.98305555555555;"48°58'59.000""N 1°45'27.000""E";78335;"";AVE DU VAL Z.I DE LIMAY-PORCHEVILLE;78520;LIMAY;Pylône autostable;28.0;TOTEM
435117;2.609166666666667;48.95666666666666;"48°57'24.000""N 2°36'33.000""E";77294;"";AV SUZANNE SALOMON AV DES PRIMEVÈRES;77290;MITRY MORY;Bâtiment;22.0;ORANGE Services Fixes
435140;2.285;48.81944444444444;"48°49'10.000""N 2°17'6.000""E";92075;"";2-4 ALLÉE DES PLATANES;92170;VANVES;Immeuble;39.0;Société HLM
435190;2.9588888888888887;48.68638888888889;"48°41'11.000""N 2°57'32.000""E";77393;"";R DU CHEM DE NESLES COOPÉRATIVE AGRICOLE DE LA BRIE;77540;ROZAY EN BRIE;Silo;41.2;"Coopérative Agricole, Vinicole"
435203;1.9002777777777777;48.91583333333333;"48°54'57.000""N 1°54'1.000""E";78010;LE CHEMIN DE MAULE;R DE MAULE PRÈS D45;78580;ALLUETS LE ROI;Pylône haubané;83.0;TDF
435210;1.9947222222222223;48.82277777777778;"48°49'22.000""N 1°59'41.000""E";78165;"";8 ALL DE LA GARE RES LA SABLIÈRE;78340;CLAYES SOUS BOIS;Bâtiment;19.0;"Copropriété, Syndic, SCI"
435214;2.486944444444444;48.81916666666667;"48°49'9.000""N 2°29'13.000""E";94017;"";46 AV ROGER SALENGRO CITÉ FIAC;94500;CHAMPIGNY SUR MARNE;Immeuble;29.2;Société HLM
435419;2.632222222222222;48.97527777777778;"48°58'31.000""N 2°37'56.000""E";77294;"";9 R GUY MOQUET/GABRIEL NOTTELET SQ GUY MOQUET;77290;MITRY MORY;Immeuble;14.3;Société HLM
435600;2.399166666666667;48.844722222222224;"48°50'41.000""N 2°23'57.000""E";75112;"";22/26 AV DE ST MANDÉ;75012;PARIS 12E ARRONDISSEMENT;Immeuble;40.0;Société HLM
435891;2.4561111111111114;48.77722222222222;"48°46'38.000""N 2°27'22.000""E";94028;"";1 PL DU GÉNÉRAL BILLOTTE HÔTEL DES FINANCES;94000;CRETEIL;Immeuble;31.0;"Ets public , Minist, Synd mixt"
435900;2.2905555555555557;48.87027777777778;"48°52'13.000""N 2°17'26.000""E";75116;"";46 R LAURISTON;75116;PARIS 16E ARRONDISSEMENT;Immeuble;33.0;"Copropriété, Syndic, SCI"
435922;1.8488888888888888;48.696666666666665;"48°41'48.000""N 1°50'56.000""E";78486;"";14 R DE HOUDAN;78610;PERRAY EN YVELINES;Pylône autostable;50.0;HIVORY
436046;2.867777777777778;48.95861111111111;"48°57'31.000""N 2°52'4.000""E";77284;"";"CHÂTEAU D'EAU D'ORGEMONT R DU LYCÉE";77100;MEAUX;"Château d'eau - réservoir";49.0;"Commune, communauté de commune"
436667;2.145;48.835;"48°50'6.000""N 2°8'42.000""E";78158;LES HUBIES;"FORET DE FAUSSE REPOSE CHATEAU D'EAU";78150;CHESNAY ROCQUENCOURT;"Château d'eau - réservoir";49.6;"Syndicat des eaux, Adduction"
436673;2.1805555555555554;48.93805555555556;"48°56'17.000""N 2°10'50.000""E";78586;"";113 R GABRIEL PERI;78500;SARTROUVILLE;Immeuble;21.5;"Commune, communauté de commune"
436995;2.3958333333333335;48.83777777777778;"48°50'16.000""N 2°23'45.000""E";75112;"";7-8 SQ GEORGES CONTENOT;75012;PARIS 12E ARRONDISSEMENT;Immeuble;43.5;Société HLM
437034;2.015;48.94;"48°56'24.000""N 2°0'54.000""E";78123;"";340 R DES ÉCOLES;78955;CARRIERES SOUS POISSY;Immeuble;20.5;"Commune, communauté de commune"
437037;2.5330555555555554;48.905277777777776;"48°54'19.000""N 2°31'59.000""E";93014;"";"20, ALLÉE DE LA FOSSE MAUSSOIN";93390;CLICHY SOUS BOIS;Bâtiment;13.5;Société Privée
437059;2.4811111111111113;48.80583333333333;"48°48'21.000""N 2°28'52.000""E";94068;"";36 BD RABELAIS CENTRAL TÉLÉPHONIQUE;94100;SAINT MAUR DES FOSSES;Bâtiment;28.3;ORANGE Services Fixes
437360;2.387777777777778;48.93416666666667;"48°56'3.000""N 2°23'16.000""E";93027;"";AV ROGER SALENGRO PRES A1 CENTRE HIPPIQUE;93120;COURNEUVE;"Ouvrage de signalisation (portique routier, panneau routier)";14.0;DDE
437363;1.8713888888888888;48.94111111111111;"48°56'28.000""N 1°52'17.000""E";78049;"";CARREFOUR DE LA HAUTE BORNE;78580;BAZEMONT;pylône arbre;37.0;ATC FRANCE
437447;1.783611111111111;48.76861111111111;"48°46'7.000""N 1°47'1.000""E";78289;LA PATURE DE GROSROUVRE;RD 138 RELAI HERTZIEN DE HOUDAN;78490;GROSROUVRE;Pylône autostable;52.0;Autres
437504;2.5155555555555553;49.0375;"49°2'15.000""N 2°30'56.000""E";95351;LE HEUR BRULÉ;CHEMIN DE CHENNEVIÈRES BUTTES DE VITELLE;95380;LOUVRES;Pylône autostable;26.0;TOTEM
437707;2.6158333333333332;48.82944444444445;"48°49'46.000""N 2°36'57.000""E";77337;BOIS DE LA GRANGE-LOGNES;"A4 PK 17,900 SENS PARIS/STRASBOURG";77186;NOISIEL;Pylône autostable;44.0;"Sociétés d'Autoroutes"
437723;2.4927777777777775;48.83083333333333;"48°49'51.000""N 2°29'34.000""E";94017;"";QUAI POLANGIS PR 8.2 DERRIÈRE LE PONT AUX ABORDS DE LA MARNE PONT DE NOGENT;94500;CHAMPIGNY SUR MARNE;Tunnel;8.0;DDE
438503;1.966388888888889;48.96861111111111;"48°58'7.000""N 1°57'59.000""E";78643;LES PERRONS;"";78540;VERNOUILLET;pylône arbre;30.0;ATC FRANCE
438547;1.846111111111111;48.992222222222225;"48°59'32.000""N 1°50'46.000""E";78327;"";AV DE LA GARE GARE SNCF;78820;JUZIERS;Pylône autostable;21.0;CELLNEX
438550;2.345833333333333;48.83138888888889;"48°49'53.000""N 2°20'45.000""E";75113;"";88/90/92 BD  AUGUSTE BLANQUI;75013;PARIS 13E ARRONDISSEMENT;Immeuble;37.5;Société HLM
438760;2.778611111111111;48.66555555555556;"48°39'56.000""N 2°46'43.000""E";77352;"";R DE JAMARD ZI ENTREPOT;77390;OZOUER LE VOULGIS;Bâtiment;23.5;Particulier
438816;2.1302777777777777;48.94583333333333;"48°56'45.000""N 2°7'49.000""E";78358;"";54 R DU TIR;78600;MAISONS LAFFITTE;"Château d'eau - réservoir";42.0;"Commune, communauté de commune"
438819;1.8727777777777779;48.845;"48°50'42.000""N 1°52'22.000""E";78062;"VALLÉE DE L'ÂNE";CHEM DE FLEUBERT;78650;BEYNES;Pylône autostable;29.0;HIVORY
438920;2.381111111111111;48.687777777777775;"48°41'16.000""N 2°22'52.000""E";91326;"";3 R HOCHE;91260;JUVISY SUR ORGE;Bâtiment;16.0;"Copropriété, Syndic, SCI"
439038;2.238888888888889;49.06583333333333;"49°3'57.000""N 2°14'20.000""E";95678;"";20 R JEAN BAPTISTE LECHAUGUETTE;95840;VILLIERS ADAM;Bâtiment;14.5;Société Privée
439210;2.384722222222222;48.845;"48°50'42.000""N 2°23'5.000""E";75112;"";163 R DE CHARENTON;75012;PARIS 12E ARRONDISSEMENT;Immeuble;59.0;Société HLM
439237;2.958611111111111;48.80444444444444;"48°48'16.000""N 2°57'31.000""E";77219;LES GONDOINES;"";77580;GUERARD;Pylône autostable;57.0;HIVORY
439251;2.7058333333333335;48.79805555555556;"48°47'53.000""N 2°42'21.000""E";77374;"";81 R GRANDE RUE;77135;PONTCARRE;"Château d'eau - réservoir";43.0;"Commune, communauté de commune"
439411;2.2044444444444444;48.8025;"48°48'9.000""N 2°12'16.000""E";92048;ETOILE DU PAVE DE MEUDON;ROND POINT TOUR TELECOM HAMPE;92190;MEUDON;Tour hertzienne;110.0;TDF
439574;2.76;48.918055555555554;"48°55'5.000""N 2°45'36.000""E";77234;"";"31, 33  GRANDE R CHATEAU D'EAU";77450;JABLINES;"Château d'eau - réservoir";31.0;"Commune, communauté de commune"
439613;1.6805555555555556;48.993611111111115;"48°59'37.000""N 1°40'50.000""E";78361;"";R DES CLOSEAUX;78200;MANTES LA JOLIE;Pylône autostable;50.0;TOTEM
439752;2.3855555555555554;48.84916666666667;"48°50'57.000""N 2°23'8.000""E";75112;"";9 R DE REUILLY;75012;PARIS 12E ARRONDISSEMENT;Immeuble;25.0;"Copropriété, Syndic, SCI"
439859;2.6855555555555557;48.956944444444446;"48°57'25.000""N 2°41'8.000""E";77292;LA FOSSE BEAUMONT;"";77410;MESSY;Pylône tubulaire;37.5;HIVORY
439887;1.691388888888889;48.973333333333336;"48°58'24.000""N 1°41'29.000""E";78354;"";R DE LA MARNIERE ZI DE MONTGAZONS;78200;MAGNANVILLE;Immeuble;20.0;Société HLM
439909;1.625;48.993611111111115;"48°59'37.000""N 1°37'30.000""E";78531;"";CHEM RURAL DES HAUTES PERRUCHES;78710;ROSNY SUR SEINE;Pylône autostable;31.0;TOTEM
439987;2.185;48.83638888888889;"48°50'11.000""N 2°11'6.000""E";92047;PR 6 - A13 SENS PROVINCE PARIS;INTERSECTION AVEC PONT PASTEUR BOIS DE LA COURONNE P.R 6;92430;MARNES LA COQUETTE;"Ouvrage d'art (pont, viaduc)";8.0;DDE
440156;2.2736111111111112;48.870555555555555;"48°52'14.000""N 2°16'25.000""E";75116;"";PL DU MARECHAL DE LATTRE DE TASSIGNY UNIVERSITE DAUPHINE;75116;PARIS 16E ARRONDISSEMENT;Immeuble;38.0;"Ets public , Minist, Synd mixt"
440167;2.0605555555555557;48.687777777777775;"48°41'16.000""N 2°3'38.000""E";78575;"";102 RTE DE LIMOURS DOMAINE DE ST-PAUL;78470;SAINT REMY LES CHEVREUSE;Bâtiment;55.0;Société Privée
440178;2.3738888888888887;48.86;"48°51'36.000""N 2°22'26.000""E";75111;"";17 IMP TRUILLOT;75011;PARIS 11E ARRONDISSEMENT;Bâtiment;24.0;Association
440196;2.5216666666666665;49.005833333333335;"49°0'21.000""N 2°31'18.000""E";95527;"";1 ALLÉE DU VERGER HÔTEL HOLIDAY INN;95700;ROISSY EN FRANCE;Immeuble;30.0;Société Privée
440208;1.8147222222222221;48.80361111111111;"48°48'13.000""N 1°48'53.000""E";78389;LA FOSSETTE;RTE DE LA BARDELLE  SILO MÉRÉ;78490;MERE;Silo;30.2;Société Privée
440214;2.5588888888888888;48.82888888888889;"48°49'44.000""N 2°33'32.000""E";94079;"";5 R DES ACACIAS;94350;VILLIERS SUR MARNE;Immeuble;20.0;Société HLM
440223;2.4519444444444445;48.81388888888889;"48°48'50.000""N 2°27'7.000""E";94046;"";13 R MICHELET;94700;MAISONS ALFORT;Immeuble;18.0;"Copropriété, Syndic, SCI"
440275;3.0519444444444446;48.7775;"48°46'39.000""N 3°3'7.000""E";77433;CHAMBRISSET;FERME DU CHAMBRISSET - D 402 RD 402;77120;BEAUTHEIL SAINTS;Pylône autostable;26.0;TOTEM
440548;1.8616666666666668;48.882222222222225;"48°52'56.000""N 1°51'42.000""E";78415;"";"R DU BOUT DE LA MARRE RUELLE DE L'EGLISE";78124;MONTAINVILLE;Monument religieux;34.0;"Commune, communauté de commune"
440576;3.2244444444444444;48.967777777777776;"48°58'4.000""N 3°13'28.000""E";77397;LA CROIX DE CITRY;AV DE CITRY ZAC;77730;SAACY SUR MARNE;Pylône autostable;27.0;HIVORY
440799;2.1005555555555557;48.83777777777778;"48°50'16.000""N 2°6'2.000""E";78158;"";DOMAINE DE VOLUCEAU CENTRE DE RECHERCHE INRIA;78150;CHESNAY ROCQUENCOURT;Bâtiment;13.0;"Ets public , Minist, Synd mixt"
440813;2.2827777777777776;48.86833333333333;"48°52'6.000""N 2°16'58.000""E";75116;"";115 AV VICTOR HUGO;75116;PARIS 16E ARRONDISSEMENT;Immeuble;31.0;"Copropriété, Syndic, SCI"
440837;2.681111111111111;48.9075;"48°54'27.000""N 2°40'52.000""E";77517;LES HOULEBERTS;16 CHEM DE LUZANCY;77410;VILLEVAUDE;Pylône autostable;45.0;TOTEM
440872;2.286111111111111;48.848333333333336;"48°50'54.000""N 2°17'10.000""E";75115;"";57 R EMERIAU;75015;PARIS 15E ARRONDISSEMENT;Immeuble;37.2;Société HLM
440945;2.073888888888889;49.045;"49°2'42.000""N 2°4'26.000""E";95127;"";16 R FRANCIS COMBE;95000;CERGY;Pylône autostable;41.0;RTE
441232;3.388055555555556;49.062777777777775;"49°3'46.000""N 3°23'17.000""E";02168;"";"22 ROUTE D'ETRÉPILLY FERME DE LAUCONNOIS";02400;CHATEAU THIERRY;Pylône autostable;65.0;TDF
441269;2.341111111111111;48.854166666666664;"48°51'15.000""N 2°20'28.000""E";75106;"";13 R DE SAVOIE;75006;PARIS 6E ARRONDISSEMENT;Bâtiment;25.0;Particulier
441592;2.423611111111111;48.848333333333336;"48°50'54.000""N 2°25'25.000""E";94080;"";4 R EUGÈNE BLOT;94300;VINCENNES;Immeuble;29.0;Société HLM
441601;2.4747222222222223;48.96527777777778;"48°57'55.000""N 2°28'29.000""E";93005;ECHANGEUR DE GARONOR;A1 PR 12.6 PARIS PROVINCE PONT BRETELLE A3;93600;AULNAY SOUS BOIS;Tunnel;9.0;DDE
442038;2.4141666666666666;48.81027777777778;"48°48'37.000""N 2°24'51.000""E";94002;"";102 R VERON;94140;ALFORTVILLE;Immeuble;22.5;"Copropriété, Syndic, SCI"
442130;2.2558333333333334;48.90111111111111;"48°54'4.000""N 2°15'21.000""E";92026;"";59 R DE COLOMBES;92400;COURBEVOIE;Immeuble;45.0;Société Privée
442134;2.2669444444444444;48.827777777777776;"48°49'40.000""N 2°16'1.000""E";92040;"";66-68 BD GALLIENI RÉSIDENCE ROBERT SCHUMAN;92130;ISSY LES MOULINEAUX;Immeuble;43.2;Société HLM
442172;2.2369444444444446;48.9175;"48°55'3.000""N 2°14'13.000""E";92025;"";329B R GABRIEL PÉRI;92700;COLOMBES;Immeuble;22.0;Particulier
442524;2.088888888888889;49.01361111111111;"49°0'49.000""N 2°5'20.000""E";78172;"";R DES AMBASSADEURS PRES INTERSEC N 184 ET RD 55A IMM.DE BUREAUX;78700;CONFLANS SAINTE HONORINE;Immeuble;31.0;Société Privée
442798;2.5330555555555554;48.804722222222225;"48°48'17.000""N 2°31'59.000""E";94019;FORT DE CHAMPIGIGNY;142 AV ARISTIDE BRIAND;94430;CHENNEVIERES SUR MARNE;Tour hertzienne;132.0;ORANGE Services Fixes
443051;2.3825;48.87083333333333;"48°52'15.000""N 2°22'57.000""E";75120;"";41 R PALI KAO;75020;PARIS 20E ARRONDISSEMENT;Immeuble;20.0;Société HLM
443286;2.3025;48.87277777777778;"48°52'22.000""N 2°18'9.000""E";75108;"";12/14/16 R WASHINGTON;75008;PARIS 8E ARRONDISSEMENT;Bâtiment;30.0;"Copropriété, Syndic, SCI"
443355;1.8191666666666666;48.85444444444445;"48°51'16.000""N 1°49'9.000""E";78364;"";R DES CHÂTAIGNIERS CHÂTEAU DE MARCQ;78770;MARCQ;"Château d'eau - réservoir";47.0;"Commune, communauté de commune"
443695;2.812222222222222;48.71;"48°42'36.000""N 2°48'44.000""E";77104;LE CHATELET;"RTE FONTENAY CH D'EAU";77610;CHATRES;"Château d'eau - réservoir";35.0;"Commune, communauté de commune"
443908;2.3125;49.007222222222225;"49°0'26.000""N 2°18'45.000""E";95014;LA BERCHÈRE;FACE 7 R BEAUMARCHAIS;95580;ANDILLY;Pylône autostable;45.0;HIVORY
444302;2.4625;48.85722222222222;"48°51'26.000""N 2°27'45.000""E";93048;"";"156, 158 R DE TILLEMONT";93100;MONTREUIL;Immeuble;29.0;"Copropriété, Syndic, SCI"
444326;2.3630555555555555;48.967777777777776;"48°58'4.000""N 2°21'47.000""E";93059;"";11 R ETIENNE DOLET;93380;PIERREFITTE SUR SEINE;Immeuble;20.0;Société HLM
444357;2.5077777777777777;48.861111111111114;"48°51'40.000""N 2°30'28.000""E";93049;"";64 R DU MARÉCHAL FOCH;93360;NEUILLY PLAISANCE;Immeuble;22.0;Société HLM
444375;2.5683333333333334;48.827777777777776;"48°49'40.000""N 2°34'6.000""E";93051;"";12 R PAUL SERELLE;93160;NOISY LE GRAND;Bâtiment;12.0;Particulier
444391;2.4694444444444446;48.88583333333333;"48°53'9.000""N 2°28'10.000""E";93053;"";14 R PAUL VERLAINE CITÉ LONDEAU;93130;NOISY LE SEC;Immeuble;55.0;"Commune, communauté de commune"
444399;2.2158333333333333;49.019444444444446;"49°1'10.000""N 2°12'57.000""E";95607;"";3 R JESSE OWENS RÉSIDENCE  JEAN BOUIN;95150;TAVERNY;Immeuble;34.8;Société HLM
444572;2.703888888888889;48.845555555555556;"48°50'44.000""N 2°42'14.000""E";77058;"";R DE GUERMANTES LE CLOS ST GEORGES;77600;BUSSY SAINT GEORGES;"Château d'eau - réservoir";36.0;"Syndicat des eaux, Adduction"
444608;2.317222222222222;48.89194444444445;"48°53'31.000""N 2°19'2.000""E";75117;"";157 AV DE CLICHY;75017;PARIS 17E ARRONDISSEMENT;Immeuble;31.5;Société Privée
444647;2.3494444444444444;49.00694444444444;"49°0'25.000""N 2°20'58.000""E";95539;"";"R DE PISCOP ZAC LES PERRUCHES MAGASIN TOY'S RUS";95350;SAINT BRICE SOUS FORET;Pylône tubulaire;21.0;TOTEM
444995;2.401111111111111;48.871944444444445;"48°52'19.000""N 2°24'4.000""E";75120;"";12 R DU TELEGRAPHE;75020;PARIS 20E ARRONDISSEMENT;Immeuble;39.3;Société HLM
445277;2.399722222222222;48.855;"48°51'18.000""N 2°23'59.000""E";75120;"";44 R DE TERRE NEUVE;75020;PARIS 20E ARRONDISSEMENT;Immeuble;21.4;Société HLM
445327;3.0241666666666664;49.07472222222222;"49°4'29.000""N 3°1'27.000""E";77283;"";ROUTE DE SOISSONS;77145;MAY EN MULTIEN;"Château d'eau - réservoir";32.0;"Commune, communauté de commune"
445400;2.7536111111111112;49.02972222222222;"49°1'47.000""N 2°45'13.000""E";77308;CIMETIERE;R NEUVE PRÈS RÉSERVOIR;77230;MONTGE EN GOELE;Tour hertzienne;55.0;TDF
445404;2.3233333333333333;48.74444444444445;"48°44'40.000""N 2°19'24.000""E";91689;"";"A 6A-PROVINCE>PARIS PR 8,6 PONTS SNCF & ORLYVAL";91320;WISSOUS;"Ouvrage d'art (pont, viaduc)";10.3;"Commune, communauté de commune"
445429;3.3647222222222224;48.76638888888889;"48°45'59.000""N 3°21'53.000""E";77093;BOIS DES MOUTILS;RN 34;77320;CHAPELLE MOUTILS;Pylône autostable;42.0;TDF
445756;2.278888888888889;48.88638888888889;"48°53'11.000""N 2°16'44.000""E";92051;"";27 BD VICTOR HUGO;92200;NEUILLY SUR SEINE;Bâtiment;28.0;Société Privée
445766;2.848888888888889;49.0;"49°0'0.000""N 2°50'56.000""E";77358;MONTBOUT;N330 PYLÔNE RFF / PK22;77124;PENCHARD;Pylône autostable;38.0;SNCF Réseau
445805;2.3666666666666667;48.96055555555556;"48°57'38.000""N 2°22'0.000""E";93059;"";115 R ETIENNE DOLET;93380;PIERREFITTE SUR SEINE;Pylône tubulaire;37.0;Particulier
445835;3.075277777777778;48.795833333333334;"48°47'45.000""N 3°4'31.000""E";77433;"";ROUTE DU LIMOUSIN STATION DE COMPOSTAGE;77120;BEAUTHEIL SAINTS;Pylône tubulaire;35.0;SFR
446132;1.6880555555555556;48.96666666666667;"48°58'0.000""N 1°41'17.000""E";78354;"";R GRAVIERS STADE FIRMIND RIFFAUD;78200;MAGNANVILLE;Pylône tubulaire;28.0;ORANGE
446139;1.9141666666666666;48.99444444444445;"48°59'40.000""N 1°54'51.000""E";78440;"";23 R PAUL RAOUL;78130;MUREAUX;Immeuble;37.7;BOUYGUES
446636;2.339166666666667;48.69638888888889;"48°41'47.000""N 2°20'21.000""E";91432;"";3 R DU DR ALBERT SCHWEITZER;91420;MORANGIS;Pylône tubulaire;25.0;ATC FRANCE
446722;2.4272222222222224;48.913333333333334;"48°54'48.000""N 2°25'38.000""E";93008;"";R DE LA PROSPÉRITÉ CITÉ JEAN GRÉMILLON;93000;BOBIGNY;Immeuble;25.0;Société HLM
446773;2.351111111111111;48.7425;"48°44'33.000""N 2°21'4.000""E";94065;"";"26 R DE L'ESTEREL";94150;RUNGIS;Immeuble;21.0;Société Privée
447007;2.411111111111111;48.74611111111111;"48°44'46.000""N 2°24'40.000""E";94054;"";1/5 ALLÉE SANTOS DUMONT;94310;ORLY;Immeuble;38.3;"Copropriété, Syndic, SCI"
447050;2.9583333333333335;49.03777777777778;"49°2'16.000""N 2°57'30.000""E";77476;LA MARGUERITE;CHEM RURAL LA MARGUERITE;77440;TROCY EN MULTIEN;Pylône tubulaire;34.4;ATC FRANCE
447290;2.3608333333333333;48.82611111111111;"48°49'34.000""N 2°21'39.000""E";75113;"";127 / 129 R DE TOLBIAC;75013;PARIS 13E ARRONDISSEMENT;Immeuble;33.0;Société HLM
447660;2.575833333333333;48.823055555555555;"48°49'23.000""N 2°34'33.000""E";93051;"";60 R LUCIEN SALLES;93160;NOISY LE GRAND;Immeuble;16.6;Société Privée
447745;3.3647222222222224;49.06583333333333;"49°3'57.000""N 3°21'53.000""E";02168;LA MONTAGNE;PYLÔNE RFF/PK 61.769-DR/0/066;02400;CHATEAU THIERRY;Pylône autostable;35.0;SNCF Réseau
447788;3.230277777777778;49.04555555555555;"49°2'44.000""N 3°13'49.000""E";02465;LA GRANDE BOULLOYE;D.84 PYLÔNE RFF - PK 51.514 - DR/O/067;02810;MARIGNY EN ORXOIS;Pylône autostable;38.0;SNCF Réseau
447932;2.290277777777778;48.83416666666667;"48°50'3.000""N 2°17'25.000""E";75115;"";368 R DE VAUGIRARD;75015;PARIS 15E ARRONDISSEMENT;Immeuble;33.0;"Copropriété, Syndic, SCI"
447968;2.3730555555555557;48.855;"48°51'18.000""N 2°22'23.000""E";75111;"";33 R DE LA ROQUETTE;75011;PARIS 11E ARRONDISSEMENT;Immeuble;40.6;"Copropriété, Syndic, SCI"
448247;2.3383333333333334;48.830555555555556;"48°49'50.000""N 2°20'18.000""E";75114;"";30 R CABANIS;75014;PARIS 14E ARRONDISSEMENT;Immeuble;33.4;Société Privée
448276;1.9036111111111111;48.818333333333335;"48°49'6.000""N 1°54'13.000""E";78442;"";R DU STADE STADE DE FOOTBALL;78640;NEAUPHLE LE CHATEAU;Pylône tubulaire;25.0;ATC FRANCE
448282;2.5125;48.6875;"48°41'15.000""N 2°30'45.000""E";91215;"";R DE LA FORÊT;91860;EPINAY SOUS SENART;"Château d'eau - réservoir";65.0;"Syndicat des eaux, Adduction"
449200;3.161111111111111;48.94166666666667;"48°56'30.000""N 3°9'40.000""E";77183;LA BITORDERIE;AV DE CHALON  D 407 BOIS DE LA VILLE;77260;FERTE SOUS JOUARRE;Mât;4.0;Conseil Départemental
449242;2.2955555555555556;48.8075;"48°48'27.000""N 2°17'44.000""E";92020;"";1 ALL VAUBAN;92320;CHATILLON;Immeuble;63.0;Société HLM
449462;2.263333333333333;48.90833333333333;"48°54'30.000""N 2°15'48.000""E";92009;"";2 R DU CAPITAINE GUYNEMER;92270;BOIS COLOMBES;Immeuble;37.0;Société HLM
449466;2.359166666666667;48.80694444444445;"48°48'25.000""N 2°21'33.000""E";94043;"";33 R PAUL LAFARGUE;94270;KREMLIN BICETRE;Immeuble;42.0;Société HLM
449491;2.4719444444444445;48.94;"48°56'24.000""N 2°28'19.000""E";93007;"";130 AV PASTEUR;93150;BLANC MESNIL;Immeuble;35.3;Société HLM
449714;2.3316666666666666;48.85527777777778;"48°51'19.000""N 2°19'54.000""E";75106;"";43-45 R DES STS PÈRES FACULTÉ DE MÉDECINE DE PARIS V;75006;PARIS 6E ARRONDISSEMENT;Immeuble;65.0;"Ets public , Minist, Synd mixt"
450183;2.465;48.81722222222222;"48°49'2.000""N 2°27'54.000""E";94042;"";"5,7 R HIPPOLYTE PINSON BÂTIMENT B";94340;JOINVILLE LE PONT;Bâtiment;46.0;Société HLM
450269;2.3555555555555556;48.834722222222226;"48°50'5.000""N 2°21'20.000""E";75113;"";05-07 R RUBENS HLM;75013;PARIS 13E ARRONDISSEMENT;Immeuble;56.0;Société HLM
450285;2.363888888888889;48.82944444444445;"48°49'46.000""N 2°21'50.000""E";75113;"";149 R DU CHÂTEAU DES RENTIERS;75013;PARIS 13E ARRONDISSEMENT;Immeuble;49.0;Société HLM
450314;1.7033333333333334;48.79944444444445;"48°47'58.000""N 1°42'12.000""E";78263;LES QUATRE PILIERS;"RN 12 CHÂT.D'EAU DE GAMBAIS / HOUDAN";78950;GAMBAIS;"Château d'eau - réservoir";60.0;"Syndicat des eaux, Adduction"
450462;2.8472222222222223;48.66583333333333;"48°39'57.000""N 2°50'50.000""E";77107;"";R GAILLIER ANCIENNE GARE;77390;CHAUMES EN BRIE;Pylône autostable;39.0;HIVORY
450474;3.096388888888889;48.8225;"48°49'21.000""N 3°5'47.000""E";77131;"";R DES MEURISSONS;77120;COULOMMIERS;"Château d'eau - réservoir";62.0;"Commune, communauté de commune"
450498;2.125;48.826388888888886;"48°49'35.000""N 2°7'30.000""E";78158;QUARTIER PARLY 2;9 R POTIER;78150;CHESNAY ROCQUENCOURT;Immeuble;29.0;"Commune, communauté de commune"
450502;1.5980555555555556;48.798611111111114;"48°47'55.000""N 1°35'53.000""E";78310;SAINT-MATHIEU;RUE ST-MATHIEU;78550;HOUDAN;Pylône tubulaire;36.0;HIVORY
450539;2.3655555555555554;48.86611111111111;"48°51'58.000""N 2°21'56.000""E";75111;"";6 BD VOLTAIRE;75011;PARIS 11E ARRONDISSEMENT;Immeuble;34.0;"Copropriété, Syndic, SCI"
450892;2.471388888888889;48.725833333333334;"48°43'33.000""N 2°28'17.000""E";91191;"";10 R DES INVESTISSEURS;91560;CROSNE;Pylône autostable;37.0;BOUYGUES
451299;2.2755555555555556;48.79472222222222;"48°47'41.000""N 2°16'32.000""E";92032;"";28 R DE LA REDOUTE IMM EXPANSION 1000;92260;FONTENAY AUX ROSES;Immeuble;43.0;Société Privée
451343;1.8977777777777778;49.0025;"49°0'9.000""N 1°53'52.000""E";78299;"";37 BD MICHELET SILO;78250;HARDRICOURT;Silo;42.0;Société Privée
451361;2.194722222222222;48.86277777777778;"48°51'46.000""N 2°11'41.000""E";92063;"";35 AV DE LA FOUILLEUSE;92500;RUEIL MALMAISON;Immeuble;29.0;Société HLM
451434;2.2516666666666665;48.78916666666667;"48°47'21.000""N 2°15'6.000""E";92023;"";169 R DE LA PORTE DE TRIVAUX;92140;CLAMART;Bâtiment;38.0;ORANGE
451735;2.4227777777777777;48.676944444444445;"48°40'37.000""N 2°25'22.000""E";91201;"";7 R DES MÉSANGES;91210;DRAVEIL;Immeuble;14.8;"Copropriété, Syndic, SCI"
451755;1.6652777777777779;48.89111111111111;"48°53'28.000""N 1°39'55.000""E";78185;DEVANT LES PORTES DE COURGENT;"R DU CHÂTEAU D'EAU CHEM RURAL N°13";78790;COURGENT;"Château d'eau - réservoir";44.0;"Commune, communauté de commune"
452029;2.09;48.86527777777778;"48°51'55.000""N 2°5'24.000""E";78372;LES DÉLICES;1 PLACE VICTORIEN SARDOU AXA ASSURANCES BÂTIMENT C;78160;MARLY LE ROI;Immeuble;33.0;Société Privée
452038;2.278611111111111;48.75805555555556;"48°45'29.000""N 2°16'43.000""E";92002;"";"6 ALLÉE D'ARZ HLM LES BAS GRAVIERS - TOUR E";92160;ANTONY;Immeuble;41.0;Société HLM
452057;2.370277777777778;48.93666666666667;"48°56'12.000""N 2°22'13.000""E";93066;"";79-83 R DE STRASBOURG;93200;SAINT DENIS;Immeuble;45.8;"Copropriété, Syndic, SCI"
452067;2.5419444444444443;49.03944444444444;"49°2'22.000""N 2°32'31.000""E";95154;"";AIRE DE REPOS DE CHENNEVIÈRES A1 PYLÔNE SANEF;95380;CHENNEVIERES LES LOUVRES;Pylône autostable;32.0;"Sociétés d'Autoroutes"
452325;2.6152777777777776;49.050555555555555;"49°3'2.000""N 2°36'55.000""E";77323;"";CHEMIN DES VIGNETTES;77230;MOUSSY LE VIEUX;Pylône autostable;47.0;SFR
453080;2.2330555555555556;48.785;"48°47'6.000""N 2°13'59.000""E";92048;"";"9,11 R GEORGES MILLANDY";92190;MEUDON;Immeuble;55.0;Société HLM
453351;1.8497222222222223;48.904444444444444;"48°54'16.000""N 1°50'59.000""E";78380;ST JACQUES;CHEM RURAL N°44 DES LONGUES RAIES;78580;MAULE;Pylône autostable;40.0;TDF
453428;2.6919444444444443;48.948055555555555;"48°56'53.000""N 2°41'31.000""E";77118;"";R DE LA SOLIDARITÉ;77410;CLAYE SOUILLY;Pylône autostable;25.0;TOTEM
453449;2.608611111111111;48.79888888888889;"48°47'56.000""N 2°36'31.000""E";77373;"";9 R DES PRES ST MARTIN;77340;PONTAULT COMBAULT;Immeuble;27.8;Société HLM
453465;2.693611111111111;48.91555555555556;"48°54'56.000""N 2°41'37.000""E";77005;LA FONTAINE ROUGE;PRÈS D. 105A;77410;ANNET SUR MARNE;Pylône tubulaire;25.0;TOTEM
453978;3.1352777777777776;48.86666666666667;"48°52'0.000""N 3°8'7.000""E";77162;LA LOGE;FERME DE LA LOGE D 19;77510;DOUE;Pylône autostable;30.0;ATC FRANCE
454000;2.8725;48.94722222222222;"48°56'50.000""N 2°52'21.000""E";77513;"";AV GAMBETTA SILO VALFRANCE;77124;VILLENOY;Silo;38.0;Société Privée
454527;2.3338888888888887;48.82222222222222;"48°49'20.000""N 2°20'2.000""E";75114;"";"8, VILLA DU PARC MONTSOURIS";75014;PARIS 14E ARRONDISSEMENT;Immeuble;28.0;Association
454833;2.3875;48.830555555555556;"48°49'50.000""N 2°23'15.000""E";75112;"";BERCY EXPO 40 AV DES TERROIRS DE FRANCE;75012;PARIS 12E ARRONDISSEMENT;Immeuble;38.0;Société Privée
454898;2.3722222222222222;48.83166666666666;"48°49'54.000""N 2°22'20.000""E";75113;"";127 R DU CHEVALERET;75013;PARIS 13E ARRONDISSEMENT;Immeuble;27.4;Société HLM
455053;2.5116666666666667;48.97972222222222;"48°58'47.000""N 2°30'42.000""E";93073;LA SENTE ST MAUR;"SENTE D'AMOUR PROCHE INTERSEC A1 ET A 104";93290;TREMBLAY EN FRANCE;Pylône tubulaire;35.0;ATC FRANCE
455391;2.4305555555555554;48.794444444444444;"48°47'40.000""N 2°25'50.000""E";94046;"";24/32 AV DE LA LIBERTÉ;94700;MAISONS ALFORT;Immeuble;41.0;Société HLM
455441;2.3455555555555554;48.82611111111111;"48°49'34.000""N 2°20'44.000""E";75113;"";210 R DE TOLBIAC;75013;PARIS 13E ARRONDISSEMENT;Immeuble;51.0;"Ets public , Minist, Synd mixt"
455445;2.3716666666666666;48.89138888888889;"48°53'29.000""N 2°22'18.000""E";75119;"";11/15 R CURIAL;75019;PARIS 19E ARRONDISSEMENT;Immeuble;40.1;Société HLM
455451;2.365;48.83111111111111;"48°49'52.000""N 2°21'54.000""E";75113;"";"12, R JEAN-SÉBASTIEN BACH";75013;PARIS 13E ARRONDISSEMENT;Immeuble;33.5;"Copropriété, Syndic, SCI"
455501;2.108611111111111;49.06861111111111;"49°4'7.000""N 2°6'31.000""E";95211;LE GRAND CLOS;"CH. DE L'ANCIENNE RTE DE BEAUVAIS À PONTOISE PAR E";95300;ENNERY;Pylône autostable;45.0;HIVORY
455801;2.3602777777777777;48.82194444444445;"48°49'19.000""N 2°21'37.000""E";75113;"";6-8 R GANDON;75013;PARIS 13E ARRONDISSEMENT;Immeuble;41.0;Société HLM
455811;3.381666666666667;49.065;"49°3'54.000""N 3°22'54.000""E";02168;LES BLANCHARDS;"RTE D'ETREPILLY";02400;CHATEAU THIERRY;Pylône autostable;51.0;Société Privée
455818;2.352777777777778;48.831944444444446;"48°49'55.000""N 2°21'10.000""E";75113;"";13 AV DE LA SOEUR ROSALIE;75013;PARIS 13E ARRONDISSEMENT;Immeuble;39.0;"Copropriété, Syndic, SCI"
455934;2.658611111111111;48.79083333333333;"48°47'27.000""N 2°39'31.000""E";77390;"";5 AV DU GÉNÉRAL LECLERC;77680;ROISSY EN BRIE;"Château d'eau - réservoir";53.0;"Commune, communauté de commune"
456732;2.3544444444444443;48.75416666666667;"48°45'15.000""N 2°21'16.000""E";94065;"";ANGLE R DE LA ROCHELLE ET DU BLD CIRCULAIRE BAT MIN DE RUNGIS;94150;RUNGIS;Pylône tubulaire;25.0;HIVORY
456888;2.798611111111111;49.029444444444444;"49°1'46.000""N 2°47'55.000""E";77437;LA FONTAINE DU SAUVOY;R DU SAUVOY;77165;SAINT SOUPPLETS;Pylône autostable;27.0;TOTEM
456932;2.8794444444444443;49.01138888888889;"49°0'41.000""N 2°52'46.000""E";77023;LA CROIX DU BORDET;D. 38;77910;BARCY;Pylône tubulaire;26.0;TOTEM
457656;2.5708333333333333;49.00388888888889;"49°0'14.000""N 2°34'15.000""E";93073;"";"HOTEL SHERATON TERMINAUX C, D, G2";93290;TREMBLAY EN FRANCE;Bâtiment;29.9;Société Privée
457726;2.3455555555555554;48.84388888888889;"48°50'38.000""N 2°20'44.000""E";75105;"";"15/17  R D'ULM";75005;PARIS 5E ARRONDISSEMENT;Monument religieux;32.0;Société Privée
457796;2.3869444444444445;48.825;"48°49'30.000""N 2°23'13.000""E";75113;"";12 R BRUNESEAU DIRECTION DE LA VOIRIE (DIVISION ENTRETIEN BLD PÉR;75013;PARIS 13E ARRONDISSEMENT;Bâtiment;34.0;"Ets public , Minist, Synd mixt"
457800;1.8383333333333334;48.73583333333333;"48°44'9.000""N 1°50'18.000""E";78108;LES PLAINVAUX;CHEM RURAL N° 6 DE LA MARE COLIN;78610;BREVIAIRES;Pylône autostable;30.0;TOTEM
457805;2.2375;48.664722222222224;"48°39'53.000""N 2°14'15.000""E";91458;"";RTE DE VILLEJUST STADE MUNICIPAL;91620;NOZAY;Pylône autostable;25.0;HIVORY
457823;2.1558333333333333;49.005;"49°0'18.000""N 2°9'21.000""E";95306;LA CROIX GUILLOT;RTE DE PIERRELAYE STADE MUNICIPAL DU BEAUREGARD;95220;HERBLAY SUR SEINE;Pylône autostable;45.0;HIVORY
457874;2.276388888888889;48.93277777777778;"48°55'58.000""N 2°16'35.000""E";92004;"";51 R HENRI POINCARÉ;92600;ASNIERES SUR SEINE;Immeuble;33.2;Société HLM
457891;2.399166666666667;48.8325;"48°49'57.000""N 2°23'57.000""E";75112;"";"27, BD PONIATOWSKI";75012;PARIS 12E ARRONDISSEMENT;Immeuble;26.5;Particulier
458122;2.0433333333333334;48.97277777777778;"48°58'22.000""N 2°2'36.000""E";78015;"";R SALVADOR ALLENDE ZA LES GAUDINES PROCHE DE RD 55;78570;ANDRESY;Pylône autostable;38.0;BOUYGUES
458152;1.5130555555555556;49.074444444444445;"49°4'28.000""N 1°30'47.000""E";78320;"";CHEM DU PONCEAU - LE GRAND VAL SILO DESAFFECTE;78270;NOTRE DAME DE LA MER;Silo;26.0;Société Privée
458162;2.301388888888889;48.87555555555556;"48°52'32.000""N 2°18'5.000""E";75108;"";21-25 R DE BALZAC;75008;PARIS 8E ARRONDISSEMENT;Immeuble;41.1;"Copropriété, Syndic, SCI"
458509;2.359166666666667;48.8325;"48°49'57.000""N 2°21'33.000""E";75113;"";27/29 AV STEPHAN PICHON;75013;PARIS 13E ARRONDISSEMENT;Immeuble;35.7;"Copropriété, Syndic, SCI"
458559;2.7286111111111113;48.89361111111111;"48°53'37.000""N 2°43'43.000""E";77464;LES HAMETTES;"CHEM RURAL DE LA HAIE D'AUNOIS";77400;THORIGNY SUR MARNE;Pylône tubulaire;30.0;SFR
458850;2.222777777777778;48.72388888888889;"48°43'26.000""N 2°13'22.000""E";91477;LES MARNIÈRES;CHEM DE LA CROIX DE VILLEBOIS - LES MARINIÈRES PYLONE TDF;91120;PALAISEAU;Pylône autostable;44.0;TDF
459320;2.4469444444444446;48.915;"48°54'54.000""N 2°26'49.000""E";93029;"";11 R HENRI LANGLOIS;93700;DRANCY;Bâtiment;24.0;"Copropriété, Syndic, SCI"
459413;2.1594444444444445;48.69;"48°41'24.000""N 2°9'34.000""E";91122;"";R DE MONTJAY CIMETIERE;91440;BURES SUR YVETTE;Pylône autostable;37.0;ATC FRANCE
459529;2.4775;48.78;"48°46'48.000""N 2°28'39.000""E";94011;"";"3 ROUTE DE L'OUEST";94380;BONNEUIL SUR MARNE;Pylône tubulaire;36.0;"CCI,Ch Metiers,Port Aut,Aérop"
459535;2.9025;48.786944444444444;"48°47'13.000""N 2°54'9.000""E";77318;"";CHEMIN DES LAQUAIS SOUS LA VENTE SOQUET;77163;MORTCERF;Pylône autostable;49.0;ATC FRANCE
459609;2.4302777777777775;48.79055555555556;"48°47'26.000""N 2°25'49.000""E";94002;"";"7, ALLÉE J.SÉBASTIEN BACH";94140;ALFORTVILLE;Immeuble;51.6;Société HLM
459681;2.783333333333333;48.859722222222224;"48°51'35.000""N 2°47'0.000""E";77449;"";"14 R DU DANUBE CCAL VAL D'EUROPE";77700;SERRIS;Bâtiment;23.0;Société Privée
459743;2.1686111111111113;48.78388888888889;"48°47'2.000""N 2°10'7.000""E";78640;"";4-6 R DE LA DIVISION LECLERC RÉS MOZART - IMM N°4 ET 6;78140;VELIZY VILLACOUBLAY;Immeuble;32.0;"Copropriété, Syndic, SCI"
459749;1.708611111111111;49.06055555555555;"49°3'38.000""N 1°42'31.000""E";95651;LES FOUILLARDS;CHEM RURAL N°26 LE BOIS CURE;95510;VETHEUIL;pylône arbre;21.0;ATC FRANCE
460412;2.124722222222222;48.788333333333334;"48°47'18.000""N 2°7'29.000""E";78646;"";RÉSÉRVOIR DE SATORY QUARTIER DU GÉNÉRAL JAYAT;78000;VERSAILLES;"Château d'eau - réservoir";40.0;"Syndicat des eaux, Adduction"
460465;2.273888888888889;48.82277777777778;"48°49'22.000""N 2°16'26.000""E";92040;"";13 B  R AUGUSTE GERVAIS;92130;ISSY LES MOULINEAUX;Immeuble;37.0;Société HLM
460498;2.5344444444444445;48.873333333333335;"48°52'24.000""N 2°32'4.000""E";93050;"";2 R DES ROITELETS;93330;NEUILLY SUR MARNE;Bâtiment;40.0;Société HLM
460700;1.6994444444444445;48.995;"48°59'42.000""N 1°41'58.000""E";78361;"";111 R DE LA LIBERTÉ;78200;MANTES LA JOLIE;"Château d'eau - réservoir";29.0;Société Privée
461465;2.035;49.02388888888889;"49°1'26.000""N 2°2'6.000""E";95637;"";R DES DOUCERONS TERRAIN DE BASE-BALL;95490;VAUREAL;Pylône tubulaire;20.2;HIVORY
461488;2.5997222222222223;48.68944444444445;"48°41'22.000""N 2°35'59.000""E";77053;"";"CHEMIN DE LA PLANCHETTE CHATEAU D'EAU";77170;BRIE COMTE ROBERT;"Château d'eau - réservoir";44.2;"Commune, communauté de commune"
461720;2.0844444444444443;48.88944444444444;"48°53'22.000""N 2°5'4.000""E";78551;"";N13 AU SUD PROCHE R ROBERT FRAPPESAUCE;78100;SAINT GERMAIN EN LAYE;Pylône autostable;44.0;TDF
461724;1.7177777777777778;48.98972222222222;"48°59'23.000""N 1°43'4.000""E";78361;"";3 R CADOTTE R NATIONALE;78200;MANTES LA JOLIE;Bâtiment;23.0;Société Privée
461731;2.1533333333333333;48.78638888888889;"48°47'11.000""N 2°9'12.000""E";78646;"";PONT COLBERT  A86  BOIS DE SATORY;78000;VERSAILLES;Pylône tubulaire;38.0;DDE
461763;2.4561111111111114;48.86972222222222;"48°52'11.000""N 2°27'22.000""E";93048;"";9 AV PRÉSIDENT SALVADOR ALLENDÉ;93100;MONTREUIL;Immeuble;38.0;Société HLM
461814;2.4522222222222223;48.7225;"48°43'21.000""N 2°27'8.000""E";94078;"";40 ALLÉE DE LA SOURCE HOPITAL;94190;VILLENEUVE SAINT GEORGES;Immeuble;54.0;Etablissement de soins
461865;2.625277777777778;48.7075;"48°42'27.000""N 2°37'31.000""E";77053;LA BORDE;RTE DE CHEVRY - RD 216 LA FERME DE LA BORDE;77170;BRIE COMTE ROBERT;Pylône autostable;39.0;TDF
461896;2.399722222222222;48.85583333333334;"48°51'21.000""N 2°23'59.000""E";75120;"";"3, 5, 7, 9 SQ MONSOREAU";75020;PARIS 20E ARRONDISSEMENT;Immeuble;41.4;Société HLM
461945;2.408611111111111;48.77111111111111;"48°46'16.000""N 2°24'31.000""E";94022;"";15 R DU DR ROUX IMM LE LUGO;94600;CHOISY LE ROI;Immeuble;28.9;"Copropriété, Syndic, SCI"
461974;2.8794444444444443;48.9275;"48°55'39.000""N 2°52'46.000""E";77276;LA JUSTICE;"";77100;MAREUIL LES MEAUX;Pylône autostable;45.0;TDF
462000;1.9825;48.77472222222222;"48°46'29.000""N 1°58'57.000""E";78621;"";10B SQ HENRI WALLON;78190;TRAPPES;Immeuble;32.6;Société HLM
462010;2.3819444444444446;48.81138888888889;"48°48'41.000""N 2°22'55.000""E";94041;"";100-102 AV MAURICE THOREZ;94200;IVRY SUR SEINE;Immeuble;42.5;"Copropriété, Syndic, SCI"
462794;2.2144444444444447;48.75222222222222;"48°45'8.000""N 2°12'52.000""E";91064;"";26 R DU PETIT BIÈVRES;91570;BIEVRES;Immeuble;17.3;Particulier
463018;2.2794444444444446;48.78055555555556;"48°46'50.000""N 2°16'46.000""E";92019;"";1 ALLÉE DES AULNES HLM TOUR DE 12 ÉTAGES;92290;CHATENAY MALABRY;Immeuble;40.0;Société HLM
463076;2.2047222222222222;48.93694444444444;"48°56'13.000""N 2°12'17.000""E";95063;CITÉ DE LA BERTHIE;"16 , R DE LA BERTHIE IMM CITÉ DES SYCOMORES";95870;BEZONS;Immeuble;38.0;Société HLM
463105;2.2325;49.02333333333333;"49°1'24.000""N 2°13'57.000""E";95607;"";83 R DE PARIS;95150;TAVERNY;Bâtiment;12.8;Particulier
463444;3.4144444444444444;49.041666666666664;"49°2'30.000""N 3°24'52.000""E";02187;"";1 AV DU GÉNÉRAL DE GAULLE CAAR SILO;02400;CHIERRY;Silo;60.7;Société Privée
463604;2.0327777777777776;48.6975;"48°41'51.000""N 2°1'58.000""E";78160;LES CHARBONNIERS;RTE DE CHOISEL PROCHE STATION POMPAGE;78460;CHEVREUSE;Pylône tubulaire;32.0;"Commune, communauté de commune"
463656;2.223888888888889;48.704166666666666;"48°42'15.000""N 2°13'26.000""E";91477;"";51 R CHARLES PEGUY CITE DES FOURCHEROLLES BAT E;91120;PALAISEAU;Immeuble;16.0;Société HLM
463678;1.9058333333333333;49.02194444444444;"49°1'19.000""N 1°54'21.000""E";78261;ERMITAGE DU CLOS VIGNY;CHEM DE MEULAN À MAGNY EN VEXIN;78250;GAILLON SUR MONTCIENT;Pylône autostable;25.7;ATC FRANCE
463995;2.4161111111111113;48.8625;"48°51'45.000""N 2°24'58.000""E";93006;"";88 AV DU GÉNÉRAL DE GAULLE;93170;BAGNOLET;Immeuble;29.0;"Copropriété, Syndic, SCI"
464246;2.3708333333333336;48.94555555555556;"48°56'44.000""N 2°22'15.000""E";93066;"";12 R DAVID SIQUEIROS;93200;SAINT DENIS;Immeuble;35.5;Société HLM
464495;2.3536111111111113;48.82361111111111;"48°49'25.000""N 2°21'13.000""E";75113;"";23 R DU DR LERAY;75013;PARIS 13E ARRONDISSEMENT;Immeuble;28.0;Société HLM
464523;2.303611111111111;48.891666666666666;"48°53'30.000""N 2°18'13.000""E";75117;"";"22 AV DE LA PORTE D'ASNIERES";75017;PARIS 17E ARRONDISSEMENT;Immeuble;44.0;"Copropriété, Syndic, SCI"
464551;2.3202777777777777;48.88305555555556;"48°52'59.000""N 2°19'13.000""E";75117;"";7 R BOURSEAULT;75017;PARIS 17E ARRONDISSEMENT;Immeuble;31.0;"Copropriété, Syndic, SCI"
464579;2.1480555555555556;49.022222222222226;"49°1'20.000""N 2°8'53.000""E";95488;"";5 R DU CLOS ST PIERRE;95220;PIERRELAYE;Immeuble;29.9;Société HLM
465129;2.2827777777777776;48.92333333333333;"48°55'24.000""N 2°16'58.000""E";92004;"";1 R DU CAPITAINE BOSSARD BÂT A;92600;ASNIERES SUR SEINE;Immeuble;24.0;Société HLM
465178;2.785833333333333;48.86138888888889;"48°51'41.000""N 2°47'9.000""E";77111;"";R DU GRAND SECOURS HOTEL DE POLICE DE CHESSY PÉRIMÈTRE EURODISNEY;77700;CHESSY;Bâtiment;31.0;Intérieur
465208;2.7055555555555557;48.867222222222225;"48°52'2.000""N 2°42'20.000""E";77243;"";R CAMILLE PISSARO RÉSERVOIR ST LAURENT;77400;LAGNY SUR MARNE;"Château d'eau - réservoir";43.0;"Syndicat des eaux, Adduction"
465314;1.9849999999999999;48.97611111111111;"48°58'34.000""N 1°59'6.000""E";78643;"";74 A ALL DES RÉSÉDAS IMM DE LA RÉSIDENCE LE PARC;78540;VERNOUILLET;Immeuble;44.1;Société Privée
465405;2.358611111111111;48.84583333333333;"48°50'45.000""N 2°21'31.000""E";75105;"";R CUVIER - BÂT. F 4 PL JUSSIEU 9 QUAI ST-BERNARD;75005;PARIS 5E ARRONDISSEMENT;Immeuble;40.0;"Ets public , Minist, Synd mixt"
465422;1.868611111111111;48.66888888888889;"48°40'8.000""N 1°52'7.000""E";78655;"LA PATTE D'OIE";IMP DE CLERAMBAULT;78125;VIEILLE EGLISE EN YVELINES;Pylône autostable;40.0;ATC FRANCE
465428;1.6066666666666667;49.03888888888889;"49°2'20.000""N 1°36'24.000""E";78255;LA CROIX DU MOULIN;"";78840;FRENEUSE;Pylône tubulaire;29.0;ATC FRANCE
465467;2.4855555555555555;48.83722222222222;"48°50'14.000""N 2°29'8.000""E";94052;"";"113, GRANDE R CHARLES DE GAULLE";94130;NOGENT SUR MARNE;Immeuble;22.6;"Copropriété, Syndic, SCI"
465955;1.9133333333333333;48.79833333333333;"48°47'54.000""N 1°54'48.000""E";78321;"";R DE CHATEAU VILAIN - N 12 - TUN DE PONTCHARTRAIN;78760;JOUARS PONTCHARTRAIN;Tunnel;5.8;DDE
465967;2.361388888888889;48.92944444444444;"48°55'46.000""N 2°21'41.000""E";93066;"";A.1 - CARREFOUR PORTE DE PARIS RTE DE LA COURNEUVE PORTIQUE EXISTANT PROCHE HÔPITAL CASANOVA;93200;SAINT DENIS;"Ouvrage de signalisation (portique routier, panneau routier)";10.2;DDE
465998;1.8047222222222223;48.98361111111111;"48°59'1.000""N 1°48'17.000""E";78267;"";R DU MONTOIR RTE BREUIL;78440;GARGENVILLE;"Château d'eau - réservoir";45.0;"Commune, communauté de commune"
466045;2.5825;48.85138888888889;"48°51'5.000""N 2°34'57.000""E";77083;"";5 ALL EDOUARD BRANLY;77420;CHAMPS SUR MARNE;Immeuble;35.2;Société HLM
466049;2.2800000000000002;48.71361111111111;"48°42'49.000""N 2°16'48.000""E";91136;"";RTE DE MASSY PROCHE INTERSEC A 10 ET RD 58 PYLONE FT;91160;CHAMPLAN;Pylône autostable;31.0;TOTEM
466435;2.2675;48.86083333333333;"48°51'39.000""N 2°16'3.000""E";75116;"";4 AVE RAPHAËL;75116;PARIS 16E ARRONDISSEMENT;Immeuble;32.5;"Ets public , Minist, Synd mixt"
466441;2.7469444444444444;48.82888888888889;"48°49'44.000""N 2°44'49.000""E";77058;"";A.4 - AIRE DE SERVICE DE FERRIÈRES SENS PARIS-PROVINCE PYLÔNE SANEF;77600;BUSSY SAINT GEORGES;Pylône autostable;30.0;"Sociétés d'Autoroutes"
466483;2.4722222222222223;48.82527777777778;"48°49'31.000""N 2°28'20.000""E";94042;"";82 AV GUY MOQUET;94340;JOINVILLE LE PONT;Immeuble;15.0;"Copropriété, Syndic, SCI"
466511;2.2975;48.874722222222225;"48°52'29.000""N 2°17'51.000""E";75108;"";"42, AV DE FRIEDLAND";75008;PARIS 8E ARRONDISSEMENT;Immeuble;35.1;"Copropriété, Syndic, SCI"
466550;2.299444444444444;48.9225;"48°55'21.000""N 2°17'58.000""E";92036;"";49 R HENRI BARBUSSE;92230;GENNEVILLIERS;Immeuble;26.5;Société HLM
466579;2.314722222222222;48.91222222222222;"48°54'44.000""N 2°18'53.000""E";92024;"";51 R PIERRE;92110;CLICHY;Immeuble;30.0;"Copropriété, Syndic, SCI"
466767;3.0244444444444443;49.041111111111114;"49°2'28.000""N 3°1'28.000""E";77257;"L'ORMELET";LES VINGT ARPENTS D 147;77440;LIZY SUR OURCQ;Pylône autostable;38.0;SNCF Réseau
466772;3.1425;49.05388888888889;"49°3'14.000""N 3°8'33.000""E";77129;LES ESSARTS;RD 23;77840;COULOMBS EN VALOIS;Pylône autostable;37.0;SNCF Réseau
466815;2.088611111111111;48.83611111111111;"48°50'10.000""N 2°5'19.000""E";78043;"";PMV SIRIUS - A12 PK 1.4 - SENS PROVINCE-PARIS;78870;BAILLY;"Ouvrage d'art (pont, viaduc)";9.0;DDE
466875;2.6152777777777776;48.848055555555554;"48°50'53.000""N 2°36'55.000""E";77337;"";9 COURS DES DEUX PARCS TOUR DES JEUNES MARIÉS;77186;NOISIEL;Immeuble;50.0;Société HLM
466885;1.9755555555555555;48.827777777777776;"48°49'40.000""N 1°58'32.000""E";78165;"";"16, R DES DAMES ZI DES DAMES";78340;CLAYES SOUS BOIS;Pylône tubulaire;20.0;ORANGE
466899;2.4547222222222222;48.946666666666665;"48°56'48.000""N 2°27'17.000""E";93007;"";20 R HENRI MATISSE;93150;BLANC MESNIL;Immeuble;43.0;Société HLM
466915;2.2058333333333335;48.969166666666666;"48°58'9.000""N 2°12'21.000""E";95176;LES EPINETTES;50 R DE LA RÉPUBLIQUE;95240;CORMEILLES EN PARISIS;Bâtiment;27.0;"SDIS, secours, incendie"
466951;2.1830555555555557;48.98638888888889;"48°59'11.000""N 2°10'59.000""E";95424;"";9 R DES GLAISES CENTRAL FT;95370;MONTIGNY LES CORMEILLES;Bâtiment;23.0;ORANGE Services Fixes
466971;2.2925;48.88611111111111;"48°53'10.000""N 2°17'33.000""E";75117;"";TUNNEL BD MCHX AV STEPH.MALLARMÉ;75017;PARIS 17E ARRONDISSEMENT;Tunnel;7.0;"Commune, communauté de commune"
467036;1.5675;49.034444444444446;"49°2'4.000""N 1°34'3.000""E";78089;BOIS CAHUE;ZI - RN 13;78270;BONNIERES SUR SEINE;"Château d'eau - réservoir";54.8;"Copropriété, Syndic, SCI"
467040;2.3466666666666667;48.69222222222222;"48°41'32.000""N 2°20'48.000""E";91589;"";15 ALLÉE DE LA GENESTRIÈRE RÉSIDENCE LES TILLEULS;91600;SAVIGNY SUR ORGE;Immeuble;18.4;Société HLM
467109;2.001388888888889;48.73361111111111;"48°44'1.000""N 2°0'5.000""E";78561;LA BROSSE;SENTE RURALE N°2 DE LA VALLÉE DE MISÈRE;78470;SAINT LAMBERT;Pylône autostable;39.0;TOTEM
467134;2.484166666666667;48.8425;"48°50'33.000""N 2°29'3.000""E";94052;"";123 BD DE STRASBOURG;94130;NOGENT SUR MARNE;Immeuble;34.4;Société HLM
467220;2.258888888888889;48.81638888888889;"48°48'59.000""N 2°15'32.000""E";92040;"";72 À 74 R DE L ÉGALITÉ;92130;ISSY LES MOULINEAUX;Immeuble;32.0;Société HLM
467454;2.172222222222222;48.70388888888889;"48°42'14.000""N 2°10'20.000""E";91471;"";RUE DE CHEVREUSE UNIVERSITÉ PARIS SUD;91400;ORSAY;Bâtiment;19.0;"Ets public , Minist, Synd mixt"
467551;1.7463888888888888;48.66361111111111;"48°39'49.000""N 1°44'47.000""E";78497;LA GROSSE HAIE;CHEM DES CORNIERS;78125;POIGNY LA FORET;Tour hertzienne;83.0;ORANGE Services Fixes
467590;2.645277777777778;48.97666666666667;"48°58'36.000""N 2°38'43.000""E";77294;"";R PABLO PICASSO VOIE D  BAT 7;77290;MITRY MORY;Pylône tubulaire;32.0;SFR
467603;2.2647222222222223;48.84222222222222;"48°50'32.000""N 2°15'53.000""E";75116;"";61-63 R CHARDON-LAGACHE;75116;PARIS 16E ARRONDISSEMENT;Immeuble;35.8;"Copropriété, Syndic, SCI"
467614;2.5019444444444443;48.70444444444445;"48°42'16.000""N 2°30'7.000""E";91114;"";8 R JEAN XXIII;91800;BRUNOY;Bâtiment;31.0;ORANGE Services Fixes
467801;2.7247222222222223;48.74861111111111;"48°44'55.000""N 2°43'29.000""E";77215;"";AV DE LA LIBERTE;77220;GRETZ ARMAINVILLIERS;Pylône tubulaire;33.0;SNCF Réseau
467933;2.8444444444444446;49.00972222222222;"49°0'35.000""N 2°50'40.000""E";77309;LA POMMERAIE;R DE BARCY;77122;MONTHYON;Pylône autostable;31.0;HIVORY
468338;2.8691666666666666;48.85805555555555;"48°51'29.000""N 2°52'9.000""E";77521;LA CLOTÉE;"CHEMIN D'ISENGEAUD";77580;VILLIERS SUR MORIN;Pylône autostable;36.5;HIVORY
468613;2.362222222222222;49.032222222222224;"49°1'56.000""N 2°21'44.000""E";95229;"";"PL JULES RODET R ANGLADE CHÂTEAU D'EAU";95460;EZANVILLE;"Château d'eau - réservoir";54.0;"Commune, communauté de commune"
468623;2.5727777777777776;48.78;"48°46'48.000""N 2°34'22.000""E";94060;"";3 R GUSTAVE EIFFEL;94510;QUEUE EN BRIE;Pylône tubulaire;22.0;HIVORY
468651;2.311111111111111;48.78861111111111;"48°47'19.000""N 2°18'40.000""E";92007;"";5 ALLÉE DES BAS-COQUARTS;92220;BAGNEUX;Immeuble;56.1;"Copropriété, Syndic, SCI"
468658;1.9005555555555556;48.83777777777778;"48°50'16.000""N 1°54'2.000""E";78550;"";"R DE LA VALLÉE D'YART ROND POINT";78640;SAINT GERMAIN DE LA GRANGE;Pylône autostable;27.5;HIVORY
468662;2.806388888888889;48.76138888888889;"48°45'41.000""N 2°48'23.000""E";77336;LA BOURBELLE;BOIS DES PLIS LIGNE TGV 1;77610;NEUFMOUTIERS EN BRIE;Pylône autostable;36.0;SNCF Réseau
468796;2.3402777777777777;48.868611111111115;"48°52'7.000""N 2°20'25.000""E";75102;"";"13 PL DE LA BOURSE IMM DE L'AGENCE FRANCE PRESSE";75002;PARIS 2E ARRONDISSEMENT;Immeuble;72.0;Société Privée
469436;2.3144444444444443;48.88333333333333;"48°53'0.000""N 2°18'52.000""E";75117;"";38/40 R DE LEVIS;75017;PARIS 17E ARRONDISSEMENT;Immeuble;31.0;Société Privée
469459;2.8830555555555555;48.896388888888886;"48°53'47.000""N 2°52'59.000""E";77382;"";"CHEM DES CHAMPCHEUX CHATEAU D'EAU";77860;QUINCY VOISINS;"Château d'eau - réservoir";48.0;"Commune, communauté de commune"
469491;3.236388888888889;48.69583333333333;"48°41'45.000""N 3°14'11.000""E";77032;"";"PARC D'ACTIVITÉS DE LA GROUÉ CR 72 DES PRÉS DE LA NOELLE (PRÈS DE LA RD 90)";77320;BETON BAZOCHES;Pylône autostable;45.0;HIVORY
469502;2.136388888888889;48.79694444444444;"48°47'49.000""N 2°8'11.000""E";78646;"";7 R DES CHANTIERS;78000;VERSAILLES;Immeuble;28.4;Société Privée
469542;2.2344444444444442;48.815;"48°48'54.000""N 2°14'4.000""E";92048;"";3 PL STALINGRAD;92190;MEUDON;Immeuble;26.0;"Copropriété, Syndic, SCI"
469549;2.248611111111111;48.8675;"48°52'3.000""N 2°14'55.000""E";75116;"";ROUTE DU POINT DU JOUR BOIS DE BOULOGNE;75116;PARIS 16E ARRONDISSEMENT;Bâtiment;12.9;"Commune, communauté de commune"
469580;3.0322222222222224;48.92916666666667;"48°55'45.000""N 3°1'56.000""E";77415;CHAMPS DE BARUSSEL;"";77660;SAINT JEAN LES DEUX JUMEAUX;Tour hertzienne;85.0;TDF
469601;2.7494444444444444;48.96944444444444;"48°58'10.000""N 2°44'58.000""E";77095;"";R DE MESSY SILO;77410;CHARNY;Silo;44.0;"Coopérative Agricole, Vinicole"
469607;2.189722222222222;48.92722222222222;"48°55'38.000""N 2°11'23.000""E";78311;"";19 B R BLAISE PASCAL;78800;HOUILLES;Immeuble;23.0;Société HLM
469744;2.363611111111111;48.704166666666666;"48°42'15.000""N 2°21'49.000""E";91027;"";"1B R DE L'ORME ROBINET";91200;ATHIS MONS;Immeuble;26.6;Société HLM
469766;1.8472222222222223;48.973055555555554;"48°58'23.000""N 1°50'50.000""E";78029;ELISABETHVILLE;"BD DE LA RÉPUBLIQUE CHATEAU D'EAU";78410;AUBERGENVILLE;"Château d'eau - réservoir";41.0;"Syndicat des eaux, Adduction"
469782;2.0555555555555554;48.70583333333333;"48°42'21.000""N 2°3'20.000""E";78160;"";"R FABRE D'EGLANTINE";78460;CHEVREUSE;Pylône autostable;28.0;TOTEM
469795;2.346111111111111;48.75694444444444;"48°45'25.000""N 2°20'46.000""E";94065;R BALTARD;"20, AV CHARLES LINDBERGH (PRÉS DU PONDORLY) HOTEL MERCURE";94150;RUNGIS;Immeuble;54.0;"Copropriété, Syndic, SCI"
469799;2.1919444444444443;48.85;"48°51'0.000""N 2°11'31.000""E";92033;"";7 R DES QUATRE VENTS;92380;GARCHES;Bâtiment;19.6;"Commune, communauté de commune"
469800;2.100277777777778;48.79666666666667;"48°47'48.000""N 2°6'1.000""E";78646;"";1 R LUCIEN SERGENT GARE DES MATELOTS GARE SNCF;78000;VERSAILLES;Pylône autostable;29.0;SNCF Réseau
471014;2.5258333333333334;48.8275;"48°49'39.000""N 2°31'33.000""E";94079;"";R JEAN JAURES - D 11 A4;94350;VILLIERS SUR MARNE;Pylône tubulaire;14.0;DDE
471947;2.3136111111111113;48.835;"48°50'6.000""N 2°18'49.000""E";75114;"";"1, R DE GERGOVIE";75014;PARIS 14E ARRONDISSEMENT;Immeuble;35.4;SNCF Réseau
472004;2.5283333333333333;48.76694444444445;"48°46'1.000""N 2°31'42.000""E";94071;"";4 R DU TIR À FUSIL;94370;SUCY EN BRIE;Immeuble;34.0;Société HLM
472254;2.424166666666667;48.816944444444445;"48°49'1.000""N 2°25'27.000""E";94069;ECLUSE DE ST MAURICE;"A4 - SENS Y - PR 2,560";94410;SAINT MAURICE;Pylône autostable;10.0;DDE
472961;1.8683333333333334;48.83138888888889;"48°49'53.000""N 1°52'6.000""E";78443;LE PAVILLON;CHEM DU PETIT NOYER;78640;NEAUPHLE LE VIEUX;pylône arbre;27.0;Particulier
473319;2.33;48.885555555555555;"48°53'8.000""N 2°19'48.000""E";75118;"";3 R CAULAINCOURT HÔTEL MERCURE;75018;PARIS 18E ARRONDISSEMENT;Immeuble;41.0;"Copropriété, Syndic, SCI"
473323;2.777222222222222;48.74027777777778;"48°44'25.000""N 2°46'38.000""E";77470;"";R DU MARÉCHAL FOCH LE CLOSEAU;77220;TOURNAN EN BRIE;"Château d'eau - réservoir";38.0;"Syndicat des eaux, Adduction"
473361;2.2802777777777776;48.9275;"48°55'39.000""N 2°16'49.000""E";92004;"";10/12 R FREYCINET;92600;ASNIERES SUR SEINE;Immeuble;37.0;Société HLM
473362;2.5775;48.70166666666667;"48°42'6.000""N 2°34'39.000""E";77053;YVERNY;"CHEM D' EXPLOITATION";77170;BRIE COMTE ROBERT;Pylône tubulaire;33.0;HIVORY
473377;2.305833333333333;48.91722222222222;"48°55'2.000""N 2°18'21.000""E";92036;"";115 AV DES GRÉSILLONS FOYER SONACOTRA;92230;GENNEVILLIERS;Immeuble;45.5;Société HLM
473412;2.3980555555555556;48.75694444444444;"48°45'25.000""N 2°23'53.000""E";94073;LES VERGERS DE GRIGNON;2 R HÉLÈNE MULLER;94320;THIAIS;Immeuble;43.9;Société HLM
473420;1.9716666666666667;48.78861111111111;"48°47'19.000""N 1°58'18.000""E";78208;BUTTE DE LA REVANCHE;ZI DES BRUYÈRES D 912;78990;ELANCOURT;Pylône autostable;56.0;TDF
473432;2.248611111111111;48.878055555555555;"48°52'41.000""N 2°14'55.000""E";92051;"";43 R DE LA FERME;92200;NEUILLY SUR SEINE;Immeuble;35.0;Société Privée
473636;3.273888888888889;48.985277777777775;"48°59'7.000""N 3°16'26.000""E";02163;PRÈS DES TROUS AUX RENARDS;CHEM RURAL DES ALOUETTES;02310;CHARLY SUR MARNE;Pylône tubulaire;28.0;TOTEM
474011;2.8041666666666667;48.90888888888889;"48°54'32.000""N 2°48'15.000""E";77171;"";AV DE LA RÉPUBLIQUE;77450;ESBLY;Pylône tubulaire;35.0;HIVORY
474125;2.4699999999999998;48.80222222222222;"48°48'8.000""N 2°28'12.000""E";94068;"";"23, QUAI DU PORT DE CRÉTEIL";94100;SAINT MAUR DES FOSSES;Immeuble;51.0;Société Privée
474246;1.9158333333333335;48.97666666666667;"48°58'36.000""N 1°54'57.000""E";78440;"";11 ALL GEORGES BIZET;78130;MUREAUX;Immeuble;45.4;Société HLM
474253;2.4819444444444443;48.76861111111111;"48°46'7.000""N 2°28'55.000""E";94011;"";"1 AVENUE D'ORADOUR SUR GLANE";94380;BONNEUIL SUR MARNE;Immeuble;55.0;Société HLM
475297;1.5430555555555556;48.94277777777778;"48°56'34.000""N 1°32'35.000""E";78107;"";18 AV NOEL DUCHESNE;78980;BREVAL;Silo;27.8;Société Privée
475377;2.196388888888889;48.74777777777778;"48°44'52.000""N 2°11'47.000""E";91064;"";R DU CHAT NOIR RN 118;91570;BIEVRES;Mât métallique;12.0;Société Privée
476520;2.026388888888889;49.047222222222224;"49°2'50.000""N 2°1'35.000""E";95127;LE GROS CHÊNE;R DE LA PARABOLE STADE DU CHAT PERCHÉ;95000;CERGY;Pylône tubulaire;25.2;HIVORY
476568;1.966388888888889;48.75833333333333;"48°45'30.000""N 1°57'59.000""E";78644;"";1 RÉS. DU BOIS DE L ETANG;78320;VERRIERE;Immeuble;45.0;Société HLM
476683;2.493888888888889;48.806666666666665;"48°48'24.000""N 2°29'38.000""E";94068;"";"2, AVENUE NEPTUNE STADE OLYMPIQUE ADOLPHE CHERON";94100;SAINT MAUR DES FOSSES;Mât;39.8;"Commune, communauté de commune"
476687;2.5116666666666667;48.79472222222222;"48°47'41.000""N 2°30'42.000""E";94068;LA VARENNE;"2, AV CONDORCET BÂTIMENT N°10";94100;SAINT MAUR DES FOSSES;Immeuble;19.2;Société HLM
477651;1.8102777777777779;48.96472222222222;"48°57'53.000""N 1°48'37.000""E";78217;"";ZI LES ARDILLES ETS MANTOVANI FRÈRES;78680;EPONE;Pylône autostable;40.0;HIVORY
478125;2.4541666666666666;48.699444444444445;"48°41'58.000""N 2°27'15.000""E";91421;LA JUSTICE;"5 /3, ALLÉE JUSSIEU RÉSIDENCE LA FORÊT";91230;MONTGERON;Immeuble;46.5;Société HLM
478154;2.3408333333333333;48.67444444444445;"48°40'28.000""N 2°20'27.000""E";91589;"";"1, R VAN GOGH";91600;SAVIGNY SUR ORGE;Immeuble;50.4;Société HLM
478623;2.201388888888889;48.945;"48°56'42.000""N 2°12'5.000""E";78586;"";1 R MAURICE AUDIN;78500;SARTROUVILLE;Immeuble;61.0;Société HLM
478916;2.3630555555555555;48.7125;"48°42'45.000""N 2°21'47.000""E";91479;"";78 AV VICTOR HUGO;91550;PARAY VIEILLE POSTE;Immeuble;19.5;"Copropriété, Syndic, SCI"
479037;2.5730555555555554;48.68805555555556;"48°41'17.000""N 2°34'23.000""E";91631;"";16 RUE DU BOIS DE LA REMISE ZONE ARTISANALE ROUTE DE TREMBLAY;91480;VARENNES JARCY;Pylône autostable;34.0;HIVORY
479049;2.3444444444444446;48.95;"48°57'0.000""N 2°20'40.000""E";93079;"";AV DE LA DIVISION LECLERC AUCHAN;93430;VILLETANEUSE;Bâtiment;13.0;Société Privée
480664;2.0555555555555554;48.69861111111111;"48°41'55.000""N 2°3'20.000""E";78160;BOIS DE VESSERY;CHEM RURAL NO 22;78460;CHEVREUSE;Pylône autostable;43.0;TDF
480681;2.328888888888889;48.95611111111111;"48°57'22.000""N 2°19'44.000""E";93031;"L'ETANG COQUENARD";"31, R DE L'AVENIR";93800;EPINAY SUR SEINE;Immeuble;61.9;Société HLM
480861;2.3633333333333333;48.85472222222222;"48°51'17.000""N 2°21'48.000""E";75104;"";2 R DE TURENNE;75004;PARIS 4E ARRONDISSEMENT;Bâtiment;24.9;Particulier
480867;2.3297222222222222;48.831944444444446;"48°49'55.000""N 2°19'47.000""E";75114;"";1-2-3 SQ HENRI DE LORMEL;75014;PARIS 14E ARRONDISSEMENT;Immeuble;35.0;"Ets public , Minist, Synd mixt"
481273;2.043888888888889;48.79194444444445;"48°47'31.000""N 2°2'38.000""E";78423;"";4 SQ NEWTON LE PAS DU LAC;78180;MONTIGNY LE BRETONNEUX;Immeuble;30.0;ORANGE Services Fixes
481874;2.339166666666667;48.9125;"48°54'45.000""N 2°20'21.000""E";93070;"";"1, 7 ALL LA MOTTE";93400;SAINT OUEN SUR SEINE;Immeuble;37.6;Société HLM
482251;2.046111111111111;48.78138888888889;"48°46'53.000""N 2°2'46.000""E";78297;"";43 BD  VAUBAN IMM EDISON;78280;GUYANCOURT;Immeuble;35.0;"Copropriété, Syndic, SCI"
482255;1.9155555555555555;48.85444444444445;"48°51'16.000""N 1°54'56.000""E";78615;LES FONTENELLES;CHEM RURAL N° 39;78850;THIVERVAL GRIGNON;Pylône autostable;20.1;TOTEM
482475;2.2194444444444446;48.713055555555556;"48°42'47.000""N 2°13'10.000""E";91477;"";RTE DE SACLAY ECOLE POLYTECHNIQUE VOIE COMMUNALE DE LA VAUVE;91120;PALAISEAU;Pylône autostable;30.0;HIVORY
482487;2.3744444444444444;48.93277777777778;"48°55'58.000""N 2°22'28.000""E";93066;"";"A.1/FORT DE L'EST/N.186/PR 4,3 CROISEMENT A.1/RTE DE LA COURNEUVE DIRECTION PROVINCE/PARIS";93200;SAINT DENIS;Tunnel;9.0;DDE
482505;2.0819444444444444;48.90972222222222;"48°54'35.000""N 2°4'55.000""E";78551;"";RTE DE LA MARE DE POISSY TUNNEL A.14 - POINT N;78100;SAINT GERMAIN EN LAYE;Tunnel;10.0;DDE
482547;2.1530555555555555;48.83222222222222;"48°49'56.000""N 2°9'11.000""E";92076;"";A13 BD DE JARDY RTE NAPOLÉON III PR 8.4;92420;VAUCRESSON;"Ouvrage d'art (pont, viaduc)";8.1;DDE
483027;2.3402777777777777;48.92527777777778;"48°55'31.000""N 2°20'25.000""E";93066;"";"A 86- ST DENIS ENTRE N14 ET ILE ST DENIS - PR 0,5 VERS OUEST PORTIQUE PROCHE DE LA RN154";93200;SAINT DENIS;"Ouvrage de signalisation (portique routier, panneau routier)";6.2;DDE
483051;2.3402777777777777;48.76222222222222;"48°45'44.000""N 2°20'25.000""E";94021;"";"AV GEORGES GUYNEMER A.6 - PK 6,3";94550;CHEVILLY LARUE;"Ouvrage d'art (pont, viaduc)";9.7;DDE
483246;1.7108333333333334;48.977777777777774;"48°58'40.000""N 1°42'39.000""E";78362;"";98 R MAURICE BERTEAUX A13 TUNNEL DE MANTES LA VILLE;78711;MANTES LA VILLE;Tunnel;6.6;Société Privée
483343;2.013888888888889;48.88361111111111;"48°53'1.000""N 2°0'50.000""E";78233;"";A13 SENS PROVINCE-PARIS PR20.5 FORÊT DE MARLY;78810;FEUCHEROLLES;"Ouvrage de signalisation (portique routier, panneau routier)";7.0;DDE
483465;2.0733333333333333;48.84861111111111;"48°50'55.000""N 2°4'24.000""E";78043;"";"A.13 - PK 14,6 - SENS ROUEN/PARIS PMV SIRIUS";78870;BAILLY;"Ouvrage de signalisation (portique routier, panneau routier)";9.9;DDE
483525;2.093611111111111;48.84222222222222;"48°50'32.000""N 2°5'37.000""E";78043;A13/TRIANGLE DE ROCQUENCOURT;"CEI RELAIS DE L'A";78870;BAILLY;Pylône tubulaire;30.0;TOTEM
483726;2.6005555555555553;49.06111111111111;"49°3'40.000""N 2°36'2.000""E";77322;LES ECHABOTS;"R DU JEU D'ARC R DE LA MOTHE";77230;MOUSSY LE NEUF;"Château d'eau - réservoir";41.0;"Commune, communauté de commune"
483736;2.2155555555555555;48.816944444444445;"48°49'1.000""N 2°12'56.000""E";92072;"";N.118 - ANGLE R DES BRUYÈRES ET PONT DES POSTILLONS;92310;SEVRES;"Ouvrage d'art (pont, viaduc)";7.0;DDE
483754;2.4608333333333334;48.82055555555556;"48°49'14.000""N 2°27'39.000""E";75112;"";RTE DE LA PYRAMIDE PONT SUR A4 (VINCENNES);75012;PARIS 12E ARRONDISSEMENT;"Ouvrage d'art (pont, viaduc)";1.6;DDE
483764;2.1958333333333333;48.839444444444446;"48°50'22.000""N 2°11'45.000""E";92064;"";A 13 PONT SNCF P.R 5.1;92210;SAINT CLOUD;"Ouvrage d'art (pont, viaduc)";9.9;SNCF Réseau
484060;3.348888888888889;48.69972222222222;"48°41'59.000""N 3°20'56.000""E";77066;"";RUE DU PUITS LE CHANOY;77320;CERNEUX;"Château d'eau - réservoir";42.0;"Commune, communauté de commune"
485154;2.077777777777778;48.915277777777774;"48°54'55.000""N 2°4'40.000""E";78551;CAMP DES LOGES;R DU PRÉSIDENT KENNEDY;78100;SAINT GERMAIN EN LAYE;Pylône tubulaire;66.0;TDF
485457;2.298611111111111;48.749722222222225;"48°44'59.000""N 2°17'55.000""E";92002;"";20 R JOSEPH DELON;92160;ANTONY;Immeuble;53.0;Société HLM
486140;2.437222222222222;48.9125;"48°54'45.000""N 2°26'14.000""E";93008;"";AV PAUL VAILLANT COUTURIER A86 NORMANDIE INTÉRIEUR TUNNEL;93000;BOBIGNY;Tunnel;7.5;DDE
486249;2.569722222222222;49.035555555555554;"49°2'8.000""N 2°34'11.000""E";77282;LA GRANDE PIÈCE DE CHOISY;D 84A;77990;MAUREGARD;Pylône tubulaire;30.0;TOTEM
486253;2.109722222222222;48.84;"48°50'24.000""N 2°6'35.000""E";78158;"";"RTE DE VERSAILLES CHEM DU TROU D'ENFER CENTRE TECHNIQUE DIRIF";78150;CHESNAY ROCQUENCOURT;Pylône autostable;41.0;HIVORY
487207;2.716666666666667;48.92194444444444;"48°55'19.000""N 2°43'0.000""E";77005;"";128BIS R DU GL DE GAULLE;77410;ANNET SUR MARNE;"Château d'eau - réservoir";34.3;"Syndicat des eaux, Adduction"
492272;2.8466666666666667;48.860277777777775;"48°51'37.000""N 2°50'48.000""E";77141;"";CHEM DE PARIS ECH A4/N36;77580;COUTEVROULT;Pylône autostable;30.9;TOTEM
492778;2.5005555555555556;48.71666666666667;"48°43'0.000""N 2°30'2.000""E";91691;"";147 R RENÉ COTY;91330;YERRES;Bâtiment;14.3;Particulier
492824;2.046111111111111;48.808055555555555;"48°48'29.000""N 2°2'46.000""E";78242;"";"35, 37 AV DE LA REPUBLIQUE";78330;FONTENAY LE FLEURY;Bâtiment;12.0;Société Privée
492905;3.3655555555555554;49.02472222222222;"49°1'29.000""N 3°21'56.000""E";02290;LES GOMBLOTS;CHEM RURAL DIT DES GOMBLOTS;02400;ESSOMES SUR MARNE;Pylône autostable;38.0;TOTEM
492906;2.310277777777778;48.88444444444445;"48°53'4.000""N 2°18'37.000""E";75117;"";"88, 90 R CARDINET";75017;PARIS 17E ARRONDISSEMENT;Immeuble;37.6;Société Privée
492931;1.7466666666666666;48.79944444444445;"48°47'58.000""N 1°44'48.000""E";78513;BOIS DE LA COUARDE;R DE LA COUARDE - N.12 SENS PARIS/DREUX;78940;QUEUE LES YVELINES;"Ouvrage d'art (pont, viaduc)";7.5;DDE
493278;2.3563888888888886;48.81583333333333;"48°48'57.000""N 2°21'23.000""E";94043;"";"TUNNEL PORTE D'ITALIE A A6B BD  DU GÉNÉRAL DE GAULLE";94270;KREMLIN BICETRE;Tunnel;6.0;DDE
493544;2.4116666666666666;48.850833333333334;"48°51'3.000""N 2°24'42.000""E";75120;"";46 R DAVOUT BATIMENT 2;75020;PARIS 20E ARRONDISSEMENT;Immeuble;44.0;Société HLM
494266;2.0661111111111112;49.04138888888889;"49°2'29.000""N 2°3'58.000""E";95127;"";RTE DE PONTOISE STADE LE PONCEAU;95000;CERGY;Pylône tubulaire;23.4;HIVORY
494654;1.9808333333333334;48.784444444444446;"48°47'4.000""N 1°58'51.000""E";78621;"";6 SQ ALBERT CAMUS;78190;TRAPPES;Immeuble;32.0;Société HLM
494813;2.5480555555555555;48.83555555555556;"48°50'8.000""N 2°32'53.000""E";93051;REMISE DE VILLIERS;R GRAHAM BELL ROUTE DE VILLIERS;93160;NOISY LE GRAND;Bâtiment;26.5;ORANGE Services Fixes
495095;2.15;48.99638888888889;"48°59'47.000""N 2°9'0.000""E";95306;"";"2, 4, 6 R PIERRE LOTI";95220;HERBLAY SUR SEINE;Immeuble;23.0;Société Privée
495112;2.5991666666666666;49.02194444444444;"49°1'19.000""N 2°35'57.000""E";77291;"";"1, R DE LA GRANDE BORNE HÔTEL RADISSON SAS";77990;MESNIL AMELOT;Bâtiment;22.0;Société Privée
496042;2.3427777777777776;48.92055555555555;"48°55'14.000""N 2°20'34.000""E";93066;"";1 PL PLEYEL CAP AMPERE;93200;SAINT DENIS;Bâtiment;40.0;EDF ou GDF
496699;2.9455555555555555;48.90888888888889;"48°54'32.000""N 2°56'44.000""E";77484;LE MESNIL;"A4 PK45,303 AIRE DE PREVILLIERS";77580;VAUCOURTOIS;Pylône autostable;35.0;"Sociétés d'Autoroutes"
497202;2.424166666666667;48.67916666666667;"48°40'45.000""N 2°25'27.000""E";91201;"";"119 , AV EUGÈNE DELACROIX CHÂTEAU D'EAU";91210;DRAVEIL;"Château d'eau - réservoir";38.0;"Commune, communauté de commune"
497234;2.4805555555555556;48.996944444444445;"48°59'49.000""N 2°28'50.000""E";95612;"";"1-3, AV DE FLORE RN 17 - ZI DU THILLAY RN.17";95500;THILLAY;Bâtiment;16.0;"Copropriété, Syndic, SCI"
497812;2.251388888888889;48.943333333333335;"48°56'36.000""N 2°15'5.000""E";95018;"";8-12 CITÉ DE LA LIBERTÉ;95100;ARGENTEUIL;Immeuble;33.5;Société HLM
497858;2.3827777777777777;48.97361111111111;"48°58'25.000""N 2°22'58.000""E";95585;"";"2, BD  MAURICE RAVEL";95200;SARCELLES;Immeuble;49.0;"Copropriété, Syndic, SCI"
498032;2.908611111111111;48.96527777777778;"48°57'55.000""N 2°54'31.000""E";77284;"";19 R ISAAC NEWTON;77100;MEAUX;Pylône tubulaire;29.6;TDF
498884;3.5233333333333334;48.85944444444444;"48°51'34.000""N 3°31'24.000""E";51359;LE CHÊNE;"";51210;MECRINGES;Pylône autostable;40.0;TDF
499544;2.716388888888889;48.83972222222222;"48°50'23.000""N 2°42'59.000""E";77058;"";33 BD  THIBAULT DE CHAMPAGNE NOTRE DAME DU VAL;77600;BUSSY SAINT GEORGES;Monument religieux;41.7;Association
499558;2.2733333333333334;49.013333333333335;"49°0'48.000""N 2°16'24.000""E";95574;"";1 R AUGUSTE REY;95390;SAINT PRIX;Monument religieux;19.0;"Copropriété, Syndic, SCI"
499596;2.46;48.92638888888889;"48°55'35.000""N 2°27'36.000""E";93029;"";110/112AV CASTELNAU CITE DES COQUELICOTS;93700;DRANCY;Immeuble;35.0;Société HLM
499870;2.2405555555555554;48.835;"48°50'6.000""N 2°14'26.000""E";92012;"";8 R JEAN BOUVERI;92100;BOULOGNE BILLANCOURT;Immeuble;25.0;Particulier
500419;2.3713888888888888;48.80138888888889;"48°48'5.000""N 2°22'17.000""E";94081;"";1 PL DES ROSES;94400;VITRY SUR SEINE;Immeuble;48.0;Société Privée
501311;2.3205555555555555;48.861666666666665;"48°51'42.000""N 2°19'14.000""E";75107;"";284 BD ST- GERMAIN;75007;PARIS 7E ARRONDISSEMENT;Bâtiment;36.0;"Copropriété, Syndic, SCI"
501532;2.5324999999999998;48.88527777777778;"48°53'7.000""N 2°31'57.000""E";93032;"";2 R CONTANT;93220;GAGNY;Immeuble;41.6;Société HLM
502202;2.3177777777777777;48.9025;"48°54'9.000""N 2°19'4.000""E";92024;"";123 BD VICTOR HUGO - RD 410 IMM LA LUTÈCE;92110;CLICHY;Immeuble;52.0;Société HLM
502742;2.1797222222222223;48.708333333333336;"48°42'30.000""N 2°10'47.000""E";91471;LE GUICHET;SENTIER DE LA VOIE VERTE;91400;ORSAY;"Château d'eau - réservoir";48.0;"Commune, communauté de commune"
504445;2.6119444444444446;48.73833333333333;"48°44'18.000""N 2°36'43.000""E";77249;CTRE DE LOISIRS ENTRE 2 PARCS;RTE DE LA JONCHERE RTE DE LÉSIGNY N104;77150;LESIGNY;Pylône autostable;35.0;ATC FRANCE
505063;2.285555555555556;48.859722222222224;"48°51'35.000""N 2°17'8.000""E";75116;"";12 R BENJAMIN FRANKLIN LYCEE ST LOUIS DE GONZAGUE;75116;PARIS 16E ARRONDISSEMENT;Immeuble;38.6;Association
505106;2.3558333333333334;48.914722222222224;"48°54'53.000""N 2°21'21.000""E";93066;"";"91, R DU LANDY";93200;SAINT DENIS;Immeuble;33.0;Société HLM
507004;2.113888888888889;48.69222222222222;"48°41'32.000""N 2°6'50.000""E";91274;PLATEAU DE BELLEVILLE;24 26 AV DU BELVÉDÈRE;91400;GOMETZ LA VILLE;"Château d'eau - réservoir";27.4;"Commune, communauté de commune"
507483;1.857222222222222;48.754444444444445;"48°45'16.000""N 1°51'26.000""E";78576;"";R DES PATIS;78690;SAINT REMY L HONORE;Pylône autostable;40.0;RTE
508208;1.593611111111111;49.02527777777778;"49°1'31.000""N 1°35'37.000""E";78255;LES COUTUMES;DOMAINE DU GALICET;78840;FRENEUSE;Pylône autostable;30.0;TOTEM
508259;2.2583333333333333;48.73083333333334;"48°43'51.000""N 2°15'30.000""E";91377;"";4 SQ DU CLOS DE VILAINE;91300;MASSY;Immeuble;43.0;Société HLM
508524;2.3694444444444445;48.72805555555556;"48°43'41.000""N 2°22'10.000""E";91479;AÉROPORT DE PARIS-ORLY;AÉROGARE ORLY SUD;91550;PARAY VIEILLE POSTE;Bâtiment;35.9;"CCI,Ch Metiers,Port Aut,Aérop"
508906;2.526666666666667;48.83361111111111;"48°50'1.000""N 2°31'36.000""E";94015;HÔPITAL ST-CAMILLE;179 BD PASTEUR 2 R DES PERES CAMILIENS;94360;BRY SUR MARNE;Bâtiment;40.0;Etablissement de soins
509560;2.1038888888888887;48.84305555555556;"48°50'35.000""N 2°6'14.000""E";78350;"";68 RTE DE VERSAILLES;78430;LOUVECIENNES;Pylône autostable;32.0;Société Privée
509721;2.457777777777778;48.861666666666665;"48°51'42.000""N 2°27'28.000""E";93048;"";31 R LENAIN DE TILLEMONT RÉSIDENCE PAUL DOUMER;93100;MONTREUIL;Immeuble;75.0;Société HLM
509730;2.3858333333333333;49.014722222222225;"49°0'53.000""N 2°23'9.000""E";95205;REDOUTE DU MOULIN;RN.16 HÔTEL CAMPANILE;95440;ECOUEN;Pylône autostable;26.3;TOTEM
510216;2.7644444444444445;48.986666666666665;"48°59'12.000""N 2°45'52.000""E";77095;ANCIEN BOIS DE LA TRACE;RD 54;77410;CHARNY;Pylône autostable;37.0;SNCF Réseau
510273;2.3;48.93277777777778;"48°55'58.000""N 2°18'0.000""E";92036;"";"2, 8 R JEAN MOULIN";92230;GENNEVILLIERS;Immeuble;40.0;Société HLM
510287;2.2941666666666665;48.924166666666665;"48°55'27.000""N 2°17'39.000""E";92036;"";147-169 AV GABRIEL PERI;92230;GENNEVILLIERS;Immeuble;39.0;Société HLM
510311;2.4955555555555557;48.943333333333335;"48°56'36.000""N 2°29'44.000""E";93005;"";72 R CAMILLE PELLETAN;93600;AULNAY SOUS BOIS;Immeuble;40.0;Société HLM
510335;2.19;48.81111111111111;"48°48'40.000""N 2°11'24.000""E";92022;"";13 R ALFRED FOURNIER;92370;CHAVILLE;Immeuble;26.2;Société Privée
510676;2.301388888888889;49.0125;"49°0'45.000""N 2°18'5.000""E";95014;FORT DE  MONTLIGNON;ROUTE DU FORT TOUR TDF;95580;ANDILLY;Tour hertzienne;90.0;TDF
510785;2.948888888888889;48.96611111111111;"48°57'58.000""N 2°56'56.000""E";77475;"";R DE GERMIGNY;77470;TRILPORT;"Château d'eau - réservoir";40.6;"Commune, communauté de commune"
510791;2.097777777777778;48.713055555555556;"48°42'47.000""N 2°5'52.000""E";78575;"";CHEM AIGREFOIN;78470;SAINT REMY LES CHEVREUSE;Pylône autostable;47.0;RTE
510812;2.23;49.00388888888889;"49°0'14.000""N 2°13'48.000""E";95491;"";26 RUE MARCEL CLERC CENTRAL FT;95130;PLESSIS BOUCHARD;Bâtiment;31.0;ORANGE Services Fixes
510835;2.108888888888889;48.85861111111111;"48°51'31.000""N 2°6'32.000""E";78350;"";PARC DE LA PELOUSE;78430;LOUVECIENNES;pylône arbre;35.0;TOTEM
